{"type":"FeatureCollection","features":[{"type":"Feature","properties":{"numberAnke":"1","numberOfficial":"240","name":"Handschwengelpumpe [abgebaut]","district":"Reudnitz-Thonberg","address":"Albert-Schweitzer-Straße 8","date":null,"description":"Handschwengelpumpe mit Brunnenschacht und Abdeckplatte Ecke Oststraße","state":"abgebaut [Anke]","feeding":null,"controls":null},"geometry":{"type":"Point","coordinates":[12.40402,51.33198]},"id":"1"},{"type":"Feature","properties":{"numberAnke":"2","numberOfficial":"15","name":"Handschwengelpumpe","district":"Zentrum-West","address":"Alexanderstraße","date":null,"description":"Handschwengelpumpe mit Brunnenschacht und Abdeckplatte aus Granit (Typ Gotik)","state":"wahrscheinlich abgebaut","feeding":null,"controls":null},"geometry":{"type":"Point","coordinates":[null,null]},"id":"2"},{"type":"Feature","properties":{"numberAnke":"3","numberOfficial":"168","name":"Handschwengelpumpe [Torso]","district":"Neulindenau","address":"Alte Salzstraße","date":null,"description":"Handschwengelpumpe mit Brunnenschacht und Abdeckplatte in Ecklage Thüringer Straße (Typ K)","state":"wahrscheinlich abgebaut","feeding":null,"controls":null},"geometry":{"type":"Point","coordinates":[12.32058,51.32656]},"id":"3"},{"type":"Feature","properties":{"numberAnke":"4","numberOfficial":"107","name":"Handschwengelpumpe","district":"Südvorstadt","address":"Arndtstraße 60 (andere Straßenseite)","date":null,"description":"Handschwengelpumpe mit Brunnenschacht und Abdeckplatte gegenüber Nr. 60, am Albrecht-Dürer-Platz","state":"abgebaut [Anke] --> wäre schöner Standort","feeding":null,"controls":null},"geometry":{"type":"Point","coordinates":[12.37807,51.32307]},"id":"4"},{"type":"Feature","properties":{"numberAnke":"5","numberOfficial":null,"name":"Handschwengelpumpe","district":"Stötteritz","address":"Arnoldstraße 16 (andere Straßenseite)","date":null,"description":"Handschwengelpumpe mit Brunnenschacht und Abdeckplatte, zwischen Weiße- u. Ferdinand-Jost-Straße","state":"Standort nicht gefunden, wahrscheinlich gar nicht mehr vorhanden (jetzt Straßenbahnhaltestelle) [Anke]","feeding":null,"controls":null},"geometry":{"type":"Point","coordinates":[null,null]},"id":"5"},{"type":"Feature","properties":{"numberAnke":"6","numberOfficial":"230","name":"Handschwengelpumpe [abgebaut]","district":"Südvorstadt","address":"August-Bebel-Straße","date":"1910 (Handschwengelpumpe)","description":"gusseiserne Handschwengelpumpe und Abdeckplatte vor Nr. 61 (Typ Großer Löwe<Fragezeichen>)","state":"wahrscheinlich abgebaut","feeding":null,"controls":null},"geometry":{"type":"Point","coordinates":[12.36888,51.319]},"id":"6"},{"type":"Feature","properties":{"numberAnke":"7","numberOfficial":"83","name":"Handschwengelpumpe","district":"Zentrum-Südost","address":"Auguste-Schmidt-Straße 10","date":null,"description":"Handschwengelpumpe mit Brunnenschacht und Abdeckplatte schräg gegenüber Nr. 10","state":"abgebaut [Anke]","feeding":null,"controls":null},"geometry":{"type":"Point","coordinates":[12.382087,51.335754]},"id":"7"},{"type":"Feature","properties":{"numberAnke":"8","numberOfficial":"146","name":"Handschwengelpumpe [Torso]","district":"Volkmarsdorf","address":"Bautzmannstraße","date":null,"description":"Sockel einer Handschwengelpumpe mit Brunnenschacht und Abdeckplatte Ecke Eisenbahnstraße 156 (Typ Gotik)","state":"wahrscheinlich abgebaut","feeding":null,"controls":null},"geometry":{"type":"Point","coordinates":[12.417002,51.34477]},"id":"8"},{"type":"Feature","properties":{"numberAnke":"9","numberOfficial":null,"name":"Handschwengelpumpe","district":"Zentrum-Südost","address":"Bayrischer Platz","date":null,"description":"Handschwengelpumpe mit Brunnenschacht und Abdeckplatte auf dem Vorplatz am Bayrischen Bahnhof (zur Straße des 18. Oktober; neben dem Portikus)","state":"Standort nicht gefunden [Anke]","feeding":null,"controls":null},"geometry":{"type":"Point","coordinates":[12.380388,51.33017]},"id":"9"},{"type":"Feature","properties":{"numberAnke":"10","numberOfficial":"183","name":"Handschwengelpumpe [Torso]","district":"Volkmarsdorf","address":"Bennigsenstraße","date":null,"description":"Torso einer Handschwengelpumpe mit Brunnenschacht und Abdeckplatte vor Nr. 1 (Typ Delphin)","state":null,"feeding":null,"controls":null},"geometry":{"type":"Point","coordinates":[12.41403,51.34563]},"id":"10"},{"type":"Feature","properties":{"numberAnke":"11, 12,  13","numberOfficial":"284, 285, 286","name":"Drei Handschwengelpumpen","district":"Eutritzsch","address":"Berliner Straße 125-127","date":null,"description":"Drei Handschwengelpumpen mit Brunnenschacht und Abdeckplatte; eine Pumpe Typ Gotik","state":null,"feeding":null,"controls":null},"geometry":{"type":"Point","coordinates":[12.39653,51.3605]},"id":"11, 12,  13"},{"type":"Feature","properties":{"numberAnke":"14","numberOfficial":"264","name":"Handschwengelpumpe [rekonstruiert]","district":"Südvorstadt","address":"Bernhard-Göring-Straße 104 (andere Straßenseite)","date":"nach 1908 (Handschwengelpumpe)","description":"gusseiserne Handschwengelpumpe gegenüber von Bernhard-Göring-Straße 104, in Ecklage Fichtestraße (Typ Kleiner Löwe)","state":null,"feeding":"10.8.21 (erfolglos)","controls":null},"geometry":{"type":"Point","coordinates":[12.37674,51.31674]},"id":"14"},{"type":"Feature","properties":{"numberAnke":"15","numberOfficial":"150","name":"Handschwengelpumpe [Torso]","district":"Anger-Crottendorf","address":"Bernhardstraße","date":null,"description":"Torso einer Handschwengelpumpe mit Brunnenschacht und Abdeckplatte vor Nr. 7 (Typ Delphin)","state":"wahrscheinlich nur alter Torso vorhanden","feeding":null,"controls":null},"geometry":{"type":"Point","coordinates":[12.40911,51.33839]},"id":"15"},{"type":"Feature","properties":{"numberAnke":"16","numberOfficial":"266","name":"Handschwengelpumpe [abgebaut]","district":"Möckern","address":"Blücherstraße","date":null,"description":"Handschwengelpumpe mit Brunnenschacht und Abdeckplatte gegenüber Nr. 1 in Ecklage Huygensstraße, 2013 Pumpe rekonstruiert und versetzt vor Huygensstraße 3 (Typ Kleiner Löwe)","state":"wahrscheinlich abgebaut","feeding":null,"controls":null},"geometry":{"type":"Point","coordinates":[12.34889,51.36812]},"id":"16"},{"type":"Feature","properties":{"numberAnke":"17","numberOfficial":"194","name":"Handschwengelpumpe","district":"Lößnig","address":"Bornaische Straße","date":"um 1900 (Handschwengelpumpe)","description":"gusseiserne Handschwengelpumpe mit Brunnenschacht und Abdeckplatte in Höhe Raschwitzer Straße (Typ Delphin)","state":"Standort wahrscheinlich nicht mehr vorhanden","feeding":null,"controls":null},"geometry":{"type":"Point","coordinates":[null,null]},"id":"17"},{"type":"Feature","properties":{"numberAnke":"18","numberOfficial":"270","name":"Handschwengelpumpe [rekonstruiert]","district":"Connewitz","address":"Bornaische Straße 3c","date":"1910 (Handschwengelpumpe)","description":"Gusseiserne Handschwengelpumpe mit Brunnenschacht und Abdeckplatte (Typ Großer Löwe); Wiederaufstellung nach Sanierung 30. August 2000","state":null,"feeding":"10.8.21 (erfolglos)","controls":null},"geometry":{"type":"Point","coordinates":[12.3746,51.30948]},"id":"18"},{"type":"Feature","properties":{"numberAnke":"19","numberOfficial":"151","name":"Handschwengelpumpe","district":"Anger-Crottendorf","address":"Borsdorfer Straße","date":null,"description":"Handschwengelpumpe mit Brunnenschacht und Abdeckplatte (Typ Gotik) sowie Kleinpflaster und Granitschwellen der kleinen Verkehrsinsel in Ecklage Theodor-Neubauer-Straße","state":"abgebaut [Anke] --> wäre schöner Standort","feeding":null,"controls":null},"geometry":{"type":"Point","coordinates":[12.41111,51.3353]},"id":"19"},{"type":"Feature","properties":{"numberAnke":"20","numberOfficial":"119","name":"Stumpf einer Handschwengelpumpe [abgebaut]","district":"Südvorstadt","address":"Brandvorwerkstraße","date":"nach 1877 (Handschwengelpumpe)","description":"Stumpf einer Handschwengelpumpe mit Brunnenschacht und Abdeckplatte in Höhe Alfred-Kästner-Straße 9 (Typ Gotik)","state":"wahrscheinlich abgebaut","feeding":null,"controls":null},"geometry":{"type":"Point","coordinates":[12.36776,51.3224]},"id":"20"},{"type":"Feature","properties":{"numberAnke":"21","numberOfficial":null,"name":"Handschwengelpumpe","district":"Gohlis-Mitte","address":"Breitenfelder Straße","date":null,"description":"Handschwengelpumpe und Brunnenschacht und Abdeckplatte in Ecklage, an einer kleinen Grünanlage","state":null,"feeding":null,"controls":null},"geometry":{"type":"Point","coordinates":[null,null]},"id":"21"},{"type":"Feature","properties":{"numberAnke":"22","numberOfficial":"206","name":"Handschwengelpumpe","district":"Reudnitz-Thonberg","address":"Breitkopfstraße 12 (andere Straßenseite)","date":null,"description":"Handschwengelpumpe mit Brunnenschacht und Abdeckplatte gegenüber Nr. 12 in Ecklage Täubchenweg","state":"abgebaut [Anke] ","feeding":null,"controls":null},"geometry":{"type":"Point","coordinates":[12.398712,51.33661]},"id":"22"},{"type":"Feature","properties":{"numberAnke":"23","numberOfficial":"26","name":"Handschwengelpumpe [rekonstruiert]","district":"Zentrum","address":"Brühl 18","date":null,"description":"Handschwengelpumpe mit Brunnenschacht und Abdeckplatte vor dem Romanushaus","state":"betriebsbereit","feeding":null,"controls":null},"geometry":{"type":"Point","coordinates":[12.3749,51.343]},"id":"23"},{"type":"Feature","properties":{"numberAnke":"24","numberOfficial":"221","name":"Handschwengelpumpe","district":"Sellerhausen-Stünz","address":"Bruhnsstraße","date":"nach 1910 (Handschwengelpumpe)","description":"Handschwengelpumpe mit Brunnenschacht und Abdeckplatte in Ecklage Plaußiger Straße (Typ Abart Kleiner Löwe)","state":"wahrscheinlich nur alter Torso vorhanden","feeding":null,"controls":null},"geometry":{"type":"Point","coordinates":[12.42957,51.34114]},"id":"24"},{"type":"Feature","properties":{"numberAnke":"25","numberOfficial":"261","name":"Handschwengelpumpe","district":"Dölitz-Dösen","address":"Bürgerstraße","date":"um 1910 (Handschwengelpumpe)","description":"gusseiserne Handschwengelpumpe mit Brunnenschacht und Abdeckplatte in Nähe Einmündung Bornaische Straße (Typ Kleiner Löwe)","state":"wahrscheinlich abgebaut","feeding":null,"controls":null},"geometry":{"type":"Point","coordinates":[12.39255,51.288]},"id":"25"},{"type":"Feature","properties":{"numberAnke":"26","numberOfficial":"43","name":"Handschwengelpumpe [rekonstruiert]","district":"Zentrum","address":"Burgstraße 19","date":null,"description":"Handschwengelpumpe mit Brunnenschacht und Abdeckplatte vor dem Gasthof Thüringer Hof (Typ Gotik)","state":"betriebsbereit","feeding":null,"controls":null},"geometry":{"type":"Point","coordinates":[12.37331,51.33824]},"id":"26"},{"type":"Feature","properties":{"numberAnke":"27","numberOfficial":"65","name":"Handschwengelpumpe [Torso]","district":"Zentrum-Ost","address":"Chopinstraße","date":null,"description":"Handschwengelpumpe mit Brunnenschacht und Abdeckplatte gegenüber Nr. 15 in Ecklage Hans-Poeche-Straße (Typ Delphin)","state":"wahrscheinlich nur alter Torso vorhanden","feeding":null,"controls":null},"geometry":{"type":"Point","coordinates":[12.390347,51.34339]},"id":"27"},{"type":"Feature","properties":{"numberAnke":"28","numberOfficial":"247","name":"Handschwengelpumpe [abgebaut]","district":"Schönefeld-Abtnaundorf","address":"Clara-Wieck-Straße","date":null,"description":"Handschwengelpumpe mit Brunnenschacht und Abdeckplatte vor Nr. 34/36","state":"wahrscheinlich abgebaut","feeding":null,"controls":null},"geometry":{"type":"Point","coordinates":[12.41371,51.35746]},"id":"28"},{"type":"Feature","properties":{"numberAnke":"29","numberOfficial":"259","name":"Handschwengelpumpe","district":"Gohlis-Mitte","address":"Coppiplatz","date":null,"description":"Handschwengelpumpe mit Brunnenschacht und Abdeckplatte (Ganzplatte) zwischen Landsberger Straße und Heinrich-Budde-Straße","state":"wahrscheinlich abgebaut","feeding":null,"controls":null},"geometry":{"type":"Point","coordinates":[12.6712,51.3672]},"id":"29"},{"type":"Feature","properties":{"numberAnke":"30","numberOfficial":"207","name":"Handschwengelpumpe [rekonstruiert]","district":"Reudnitz-Thonberg","address":"Crusiusstraße 2a","date":null,"description":"Handschwengelpumpe mit Brunnenschacht und Abdeckplatte vor Nr. 2a in Ecklage Dresdner Straße/Stephaniplatz (Typ Delphin)","state":"betriebsbereit, wenn mit ca. 6 L Wasser gefüttert wurde","feeding":"17.07.2021","controls":"21.7.21, 4.8.21"},"geometry":{"type":"Point","coordinates":[12.39841,51.33902]},"id":"30"},{"type":"Feature","properties":{"numberAnke":"31","numberOfficial":"218","name":"Handschwengelpumpe [rekonstruiert]","district":"Zentrum-West","address":"Davidstraße 9","date":"nach 1908 (Wasserversorgungs- und Abwasseranlage)","description":"Handschwengelpumpe mit Brunnenschacht und Abdeckplatte gegenüber Nr. 9 in Ecklage Sebastian-Bach-Straße (Typ Kleiner Löwe)","state":null,"feeding":null,"controls":null},"geometry":{"type":"Point","coordinates":[12.35675,51.33486]},"id":"31"},{"type":"Feature","properties":{"numberAnke":"32","numberOfficial":null,"name":"Handschwengelpumpe","district":"Eutritzsch","address":"Delitzscher Straße 141","date":null,"description":"Handschwengelpumpe mit Brunnenschacht und Abdeckplatte im Städtischen Klinikum „St. Georg“ Leipzig","state":null,"feeding":null,"controls":null},"geometry":{"type":"Point","coordinates":[null,null]},"id":"32"},{"type":"Feature","properties":{"numberAnke":"33","numberOfficial":"173","name":"Handschwengelpumpe [abgebaut]","district":"Kleinzschocher","address":"Dieskaustraße","date":null,"description":"Handschwengelpumpe und Brunnenschacht und Abdeckplatte vor Nr. 51, gegenüber 36/38","state":"wahrscheinlich abgebaut","feeding":null,"controls":null},"geometry":{"type":"Point","coordinates":[12.32703,51.31685]},"id":"33"},{"type":"Feature","properties":{"numberAnke":"34","numberOfficial":"174","name":"Handschwengelpumpe [abgebaut]","district":"Kleinzschocher","address":"Dieskaustraße","date":null,"description":"Handschwengelpumpe mit Brunnenschacht und Abdeckplatte vor Nr. 50","state":"wahrscheinlich abgebaut","feeding":null,"controls":null},"geometry":{"type":"Point","coordinates":[12.32644,51.31625]},"id":"34"},{"type":"Feature","properties":{"numberAnke":"35","numberOfficial":"172","name":"Handschwengelpumpe","district":"Kleinzschocher","address":"Dieskaustraße","date":null,"description":"Handschwengelpumpe mit Brunnenschacht und Abdeckplatte vor Nr. 12 in Nähe Ecklage Wigandstraße (Typ Delphin)","state":"wahrscheinlich abgebaut","feeding":null,"controls":null},"geometry":{"type":"Point","coordinates":[12.32905,51.3195]},"id":"35"},{"type":"Feature","properties":{"numberAnke":"36","numberOfficial":"248","name":"Handschwengelpumpe [Torso]","district":"Schönefeld-Abtnaundorf","address":"Dimpfelstraße 52","date":null,"description":"Handschwengelpumpe mit Brunnenschacht und Abdeckplatte (Typ L)","state":"wahrscheinlich nur alter Torso vorhanden","feeding":null,"controls":null},"geometry":{"type":"Point","coordinates":[12.40868,51.3538]},"id":"36"},{"type":"Feature","properties":{"numberAnke":"37","numberOfficial":"249","name":"Handschwengelpumpe","district":"Schönefeld-Abtnaundorf","address":"Dimpfelstraße 25","date":null,"description":"Handschwengelpumpe mit Brunnenschacht und Abdeckplatte","state":"wahrscheinlich nur alter Torso vorhanden","feeding":null,"controls":null},"geometry":{"type":"Point","coordinates":[12.40932,51.35648]},"id":"37"},{"type":"Feature","properties":{"numberAnke":"38","numberOfficial":"45","name":"Handschwengelpumpe [abgebaut]","district":"Zentrum","address":"Dittrichring","date":null,"description":"Handschwengelpumpe mit Brunnenschacht und Abdeckplatte in Ecklage Thomaskirchhof, am Fußweg der Grünanlage (gegenüber Hauptportal Thomaskirche)","state":"wahrscheinlich abgebaut","feeding":null,"controls":null},"geometry":{"type":"Point","coordinates":[12.37169,51.33953]},"id":"38"},{"type":"Feature","properties":{"numberAnke":"39","numberOfficial":"61","name":"Handschwengelpumpe [abgebaut]","district":"Zentrum-Ost","address":"Dohnanyistraße 9","date":null,"description":"Handschwengelpumpe mit Brunnenschacht und Abdeckplatte vor Nr. 9, Nähe Ecke Hans-Poeche-Straße","state":"wahrscheinlich abgebaut","feeding":null,"controls":null},"geometry":{"type":"Point","coordinates":[12.38932,51.34572]},"id":"39"},{"type":"Feature","properties":{"numberAnke":"40","numberOfficial":"250","name":"Handschwengelpumpe","district":"Gohlis-Süd","address":"Ehrensteinstraße","date":null,"description":"Handschwengelpumpe mit Brunnenschacht und Abdeckplatte Ecke Gohliser Straße","state":"wahrscheinlich abgebaut","feeding":null,"controls":null},"geometry":{"type":"Point","coordinates":[null,null]},"id":"40"},{"type":"Feature","properties":{"numberAnke":"41","numberOfficial":"158","name":"Handschwengelpumpe","district":"Plagwitz","address":"Erich-Zeigner-Allee","date":null,"description":"Handschwengelpumpe mit Brunnenschacht und Abdeckplatte neben der Kirche","state":"wahrscheinlich abgebaut","feeding":null,"controls":null},"geometry":{"type":"Point","coordinates":[null,null]},"id":"41"},{"type":"Feature","properties":{"numberAnke":"44","numberOfficial":"143","name":"Handschwengelpumpe [Torso]","district":"Volkmarsdorf","address":"Ernst-Thälmann-Platz","date":null,"description":"Handschwengelpumpe mit Brunnenschacht und Abdeckplatte gegenüber Elisabethstraße 17 (Typ Gotik)","state":"wahrscheinlich nur alter Torso vorhanden","feeding":null,"controls":null},"geometry":{"type":"Point","coordinates":[12.40902,51.34362]},"id":"44"},{"type":"Feature","properties":{"numberAnke":"42","numberOfficial":null,"name":null,"district":null,"address":"Floßplatz","date":null,"description":null,"state":null,"feeding":null,"controls":null},"geometry":{"type":"Point","coordinates":[null,null]},"id":"42"},{"type":"Feature","properties":{"numberAnke":"43","numberOfficial":null,"name":null,"district":null,"address":"Floßplatz","date":null,"description":null,"state":null,"feeding":null,"controls":null},"geometry":{"type":"Point","coordinates":[null,null]},"id":"43"},{"type":"Feature","properties":{"numberAnke":"46","numberOfficial":null,"name":null,"district":null,"address":"Friedrichstraße 13","date":null,"description":null,"state":"abgebaut [Anke]","feeding":null,"controls":null},"geometry":{"type":"Point","coordinates":[12.385031,51.33343]},"id":"46"},{"type":"Feature","properties":{"numberAnke":"45","numberOfficial":"91","name":"Handschwengelpumpe [abgebaut]","district":"Zentrum-Südost","address":"Friedrichstraße 34","date":null,"description":"Handschwengelpumpe mit Brunnenschacht und Abdeckplatte sowie Wartungsschacht gegenüber ehemals Nr. 34, hinter Talstraße 34/Brüderstraße 55","state":"abgebaut [Anke]","feeding":null,"controls":null},"geometry":{"type":"Point","coordinates":[12.3849,51.33298]},"id":"45"},{"type":"Feature","properties":{"numberAnke":"47","numberOfficial":"234","name":"Handschwengelpumpe","district":"Gohlis-Süd","address":"Fritz-Seger-Straße","date":null,"description":"Handschwengelpumpe mit Brunnenschacht und Abdeckplatte (Typ Vogelkäfig)","state":"wahrscheinlich nur alter Torso vorhanden","feeding":null,"controls":null},"geometry":{"type":"Point","coordinates":[12.37124,51.3586]},"id":"47"},{"type":"Feature","properties":{"numberAnke":"48","numberOfficial":null,"name":"Vermutlicher Standort einer Handschwengelpumpe","district":"Leutzsch","address":"Georg-Schwarz-Straße","date":null,"description":"Vermutlicher Standort einer Handschwengelpumpe mit Brunnenschacht und Abdeckplatte Ecke Bischhofstraße, vor dem Kopfbau gegenüber „Liebesplatz“","state":null,"feeding":null,"controls":null},"geometry":{"type":"Point","coordinates":[null,null]},"id":"48"},{"type":"Feature","properties":{"numberAnke":"49","numberOfficial":"89","name":"Handschwengelpumpe","district":"Zentrum-Südost","address":"Glockenstraße 6 (andere Straßenseite)","date":null,"description":"Handschwengelpumpe mit Brunnenschacht und Abdeckplatte gegenüber Hauseingang Nürnberger Straße 45","state":"abgebaut [Anke]","feeding":null,"controls":null},"geometry":{"type":"Point","coordinates":[12.383632,51.33345]},"id":"49"},{"type":"Feature","properties":{"numberAnke":"50","numberOfficial":"82","name":"Handschwengelpumpe [abgebaut]","district":"Zentrum-Südost","address":"Goldschmidtstraße","date":null,"description":"nahe Roßplatz; Handschwengelpumpe mit Brunnenschacht und Abdeckplatte","state":"wurde verfüllt [Bau und Service GmbH]","feeding":null,"controls":null},"geometry":{"type":"Point","coordinates":[12.38279,51.33649]},"id":"50"},{"type":"Feature","properties":{"numberAnke":"51","numberOfficial":"81","name":"Handschwengelpumpe [abgebaut]","district":"Zentrum-Südost","address":"Goldschmidtstraße 29","date":"1910 (Handschwengelpumpe)","description":"Handschwengelpumpe mit Brunnenschacht und Abdeckplatte in Ecklage Talstraße, vor Nr. 29 (Typ Großer Löwe<Fragezeichen>)","state":"abgebaut [Anke]","feeding":null,"controls":null},"geometry":{"type":"Point","coordinates":[12.38606,51.33584]},"id":"51"},{"type":"Feature","properties":{"numberAnke":"52","numberOfficial":"246","name":"Handschwengelpumpe [rekonstruiert]","district":"Schönefeld-Ost","address":"Gorkistraße 27","date":null,"description":"Handschwengelpumpe mit Brunnenschacht und Abdeckplatte (Typ Vogelkäfig; saniert)","state":"Standort nicht gefunden [Rüdiger]","feeding":null,"controls":null},"geometry":{"type":"Point","coordinates":[12.41761,51.3585]},"id":"52"},{"type":"Feature","properties":{"numberAnke":"53","numberOfficial":"205","name":"Handschwengelpumpe","district":"Reudnitz-Thonberg","address":"Göschenstraße 9","date":null,"description":"Handschwengelpumpe mit Brunnenschacht und Abdeckplatte in Ecklage Frommannstraße, vor Nr. 9 (Typ Delphin)","state":"verrosteter Torso mit Schwengel vorhanden [Anke]","feeding":null,"controls":null},"geometry":{"type":"Point","coordinates":[12.39676,51.33776]},"id":"53"},{"type":"Feature","properties":{"numberAnke":"54","numberOfficial":null,"name":"Handschwengelpumpe","district":"Zentrum-West","address":"Gottschedstraße","date":"nach 1908 (Wasserversorgungs- und Abwasseranlage)","description":"Handschwengelpumpe mit Brunnenschacht und Abdeckplatte in Ecklage Käthe-Kollwitz-Straße (Typ Kleiner Löwe)","state":null,"feeding":null,"controls":null},"geometry":{"type":"Point","coordinates":[12.367366,51.34115]},"id":"54"},{"type":"Feature","properties":{"numberAnke":"55","numberOfficial":"136","name":"Handschwengelpumpe [rekonstruiert]","district":"Eutritzsch","address":"Gräfestraße 7","date":null,"description":"Handschwengelpumpe mit Brunnenschacht und Abdeckplatte (Typ Kleiner Löwe)","state":"betriebsbereit","feeding":null,"controls":null},"geometry":{"type":"Point","coordinates":[12.38442,51.36959]},"id":"55"},{"type":"Feature","properties":{"numberAnke":"56","numberOfficial":"115","name":"Handschwengelpumpe [Torso]","district":"Zentrum-Süd","address":"Härtelstraße","date":"um 1880 (Handschwengelpumpe)","description":"Handschwengelpumpe mit Brunnenschacht und Abdeckplatte vor Nr. 11 (Typ Gotik)","state":"wahrscheinlich nur alter Torso vorhanden","feeding":null,"controls":null},"geometry":{"type":"Point","coordinates":[12.37609,51.33273]},"id":"56"},{"type":"Feature","properties":{"numberAnke":"57","numberOfficial":"229","name":"Handschwengelpumpe [rekonstruiert]","district":"Neustadt-Neuschönefeld","address":"Hedwigstraße 3","date":null,"description":"Handschwengelpumpe mit Brunnenschacht und Abdeckplatte (Ganzplatte; saniert)","state":null,"feeding":null,"controls":null},"geometry":{"type":"Point","coordinates":[12.4032,51.34583]},"id":"57"},{"type":"Feature","properties":{"numberAnke":"58","numberOfficial":"280","name":"Handschwengelpumpe [abgebaut]","district":"Schönefeld-Abtnaundorf","address":"Heiterblickstraße","date":null,"description":"Handschwengelpumpe mit Brunnenschacht und Abdeckplatte (Typ Kleiner Löwe)","state":"wahrscheinlich abgebaut","feeding":null,"controls":null},"geometry":{"type":"Point","coordinates":[12.41879,51.3692]},"id":"58"},{"type":"Feature","properties":{"numberAnke":"59","numberOfficial":"208","name":"Handschwengelpumpe [abgebaut]","district":"Lindenau","address":"Henriettenstraße","date":null,"description":"Handschwengelpumpe mit Brunnenschacht und Abdeckplatte in Ecklage Lützner Straße; gegenüber Nr. 17, neben Haus Lützner Straße 103 (Typ Vogelkäfig)","state":null,"feeding":null,"controls":null},"geometry":{"type":"Point","coordinates":[12.32428,51.33341]},"id":"59"},{"type":"Feature","properties":{"numberAnke":"60","numberOfficial":"262","name":"Handschwengelpumpe [abgebaut]","district":"Connewitz","address":"Herderstraße","date":"19. September 2013 Pumpenkörper nicht mehr vorhanden","description":"Handschwengelpumpe mit Brunnenschacht und Abdeckplatte in Ecklage Biedermannstraße (am Herderplatz)","state":"wahrscheinlich abgebaut","feeding":null,"controls":null},"geometry":{"type":"Point","coordinates":[12.37538,51.30804]},"id":"60"},{"type":"Feature","properties":{"numberAnke":"61","numberOfficial":"260","name":"Handschwengelpumpe [abgebaut]","district":"Gohlis-Süd","address":"Herloßsohnstraße","date":null,"description":"Handschwengelpumpe mit Brunnenschacht und Abdeckplatte in Ecklage Möckernsche Straße gegenüber Herloßsohnstraße 2","state":"wahrscheinlich abgebaut","feeding":null,"controls":null},"geometry":{"type":"Point","coordinates":[12.3571,51.36157]},"id":"61"},{"type":"Feature","properties":{"numberAnke":"62","numberOfficial":"144","name":"Handschwengelpumpe [abgebaut]","district":"Neustadt-Neuschönefeld","address":"Hermann-Liebmann-Straße","date":"1919 (Handschwengelpumpe)","description":"Handschwengelpumpe mit Brunnenschacht und Ganzplatte vor Nr. 33/35 (Nähe Bergstraße auf einer kleinen Grünfläche, Typ Großer Löwe)","state":"wahrscheinlich abgebaut","feeding":null,"controls":null},"geometry":{"type":"Point","coordinates":[12.40603,51.34162]},"id":"62"},{"type":"Feature","properties":{"numberAnke":"63","numberOfficial":"142","name":"Handschwengelpumpe [abgebaut]","district":"Neustadt-Neuschönefeld","address":"Hermann-Liebmann-Straße","date":null,"description":"Handschwengelpumpe mit Brunnenschacht und Abdeckplatte Ecke Eisenbahnstraße; vor dem Geschäftshausneubau","state":"wahrscheinlich abgebaut","feeding":null,"controls":null},"geometry":{"type":"Point","coordinates":[12.405784,51.34539]},"id":"63"},{"type":"Feature","properties":{"numberAnke":"64","numberOfficial":"203","name":"Handschwengelpumpe [rekonstruiert]","district":"Eutritzsch","address":"Hohmannstraße / Berliner Straße","date":null,"description":"Handschwengelpumpe mit Brunnenschacht und Abdeckplatte in Ecklage Berliner Straße (Typ Delphin)","state":null,"feeding":null,"controls":null},"geometry":{"type":"Point","coordinates":[12.3935,51.35715]},"id":"64"},{"type":"Feature","properties":{"numberAnke":"65","numberOfficial":"238","name":"Handschwengelpumpe [abgebaut]","district":"Schleußig","address":"Holbeinstraße","date":null,"description":"Handschwengelpumpe mit Brunnenschacht und Abdeckplatte","state":"wahrscheinlich abgebaut","feeding":null,"controls":null},"geometry":{"type":"Point","coordinates":[12.3425,51.32647]},"id":"65"},{"type":"Feature","properties":{"numberAnke":"162","numberOfficial":"295","name":null,"district":null,"address":"Holzhäuserstraße 131","date":null,"description":null,"state":"wahrscheinlich abgebaut","feeding":null,"controls":null},"geometry":{"type":"Point","coordinates":[null,null]},"id":"162"},{"type":"Feature","properties":{"numberAnke":"66","numberOfficial":null,"name":null,"district":null,"address":"Huygensstraße","date":null,"description":null,"state":null,"feeding":null,"controls":null},"geometry":{"type":"Point","coordinates":[12.349901,51.36657]},"id":"66"},{"type":"Feature","properties":{"numberAnke":"67","numberOfficial":null,"name":"Handschwengelpumpe [abgebaut]","district":"Zentrum-Ost","address":"Inselstraße","date":null,"description":"Handschwengelpumpe mit Brunnenschacht und Abdeckplatte gegenüber Nr. 11 (Typ Gotik)","state":"wahrscheinlich abgebaut","feeding":null,"controls":null},"geometry":{"type":"Point","coordinates":[12.39091,51.34]},"id":"67"},{"type":"Feature","properties":{"numberAnke":"68","numberOfficial":"190","name":"Handschwengelpumpe","district":"Gohlis-Mitte","address":"Jägerstraße","date":null,"description":"Handschwengelpumpe mit Brunnenschacht und Abdeckplatte vor Nr. 2, Ecke Landsberger Straße","state":"wahrscheinlich abgebaut","feeding":null,"controls":null},"geometry":{"type":"Point","coordinates":[null,null]},"id":"68"},{"type":"Feature","properties":{"numberAnke":"69","numberOfficial":"139","name":"Handschwengelpumpe [abgebaut]","district":"Neustadt-Neuschönefeld","address":"Jonasstraße","date":null,"description":"Handschwengelpumpe mit Brunnenschacht und Abdeckplatte Ecke Eisenbahnstraße","state":"wahrscheinlich abgebaut","feeding":null,"controls":null},"geometry":{"type":"Point","coordinates":[12.396639,51.34589]},"id":"69"},{"type":"Feature","properties":{"numberAnke":"70","numberOfficial":"220","name":"Handschwengelpumpe [abgebaut]","district":"Sellerhausen-Stünz","address":"Julius-Krause-Straße","date":null,"description":"Handschwengelpumpe mit Brunnenschacht und Abdeckplatte vor Nr. 36/38 (Typ Gotik)","state":"wahrscheinlich abgebaut","feeding":null,"controls":null},"geometry":{"type":"Point","coordinates":[12.43196,51.33844]},"id":"70"},{"type":"Feature","properties":{"numberAnke":"71","numberOfficial":"149","name":"Handschwengelpumpe [Torso]","district":"Neustadt-Neuschönefeld","address":"Kapellenstraße 6","date":null,"description":"Torso einer Handschwengelpumpe mit Brunnenschacht und Abdeckplatte vor Nr. 6 (Typ Delphin)","state":"verrosteter Torso mit Schwengel vorhanden [Anke]","feeding":null,"controls":null},"geometry":{"type":"Point","coordinates":[12.40447,51.33894]},"id":"71"},{"type":"Feature","properties":{"numberAnke":"160","numberOfficial":"209","name":"Handschwengelpumpe","district":"Altlindenau","address":"Karl-Ferlemann-Straße","date":null,"description":"Handschwengelpumpe mit Brunnenschacht und Abdeckplatte in Ecklage Geraer Straße","state":"wahrscheinlich abgebaut","feeding":null,"controls":null},"geometry":{"type":"Point","coordinates":[null,null]},"id":"160"},{"type":"Feature","properties":{"numberAnke":"73","numberOfficial":"110","name":"Handschwengelpumpe [abgebaut]","district":"Südvorstadt","address":"Karl-Liebknecht-Straße","date":"nach 1877 (Handschwengelpumpe)","description":"Handschwengelpumpe mit Brunnenschacht und Abdeckplatte in Höhe Schützplatz/Scharnhorststraße (Typ Gotik)","state":"wahrscheinlich abgebaut","feeding":null,"controls":null},"geometry":{"type":"Point","coordinates":[12.37331,51.31942]},"id":"73"},{"type":"Feature","properties":{"numberAnke":"161","numberOfficial":"178","name":"Handschwengelpumpe","district":"Zentrum-Süd","address":"Karl-Liebknecht-Straße 44","date":null,"description":"Handschwengelpumpe mit Brunnenschacht und Abdeckplatte","state":"abgebaut [Anke]","feeding":null,"controls":null},"geometry":{"type":"Point","coordinates":[null,null]},"id":"161"},{"type":"Feature","properties":{"numberAnke":"72","numberOfficial":"109","name":"Handschwengelpumpe [abgebaut]","district":"Südvorstadt","address":"Karl-Liebknecht-Straße 72","date":null,"description":"Handschwengelpumpe mit Brunnenschacht und Abdeckplatte Ecke Alfred-Kästner-Straße; vor Karl-Liebknecht-Straße Nr. 72","state":"abgebaut [Anke]","feeding":null,"controls":null},"geometry":{"type":"Point","coordinates":[12.37337,51.32218]},"id":"72"},{"type":"Feature","properties":{"numberAnke":"74","numberOfficial":null,"name":null,"district":null,"address":"Karl-Mannsfeld-Straße","date":null,"description":null,"state":null,"feeding":null,"controls":null},"geometry":{"type":"Point","coordinates":[null,null]},"id":"74"},{"type":"Feature","properties":{"numberAnke":"75","numberOfficial":"7","name":"Handschwengelpumpe [rekonstruiert]","district":"Zentrum","address":"Katharinenstraße 9","date":"nach 1850 (Handschwengelpumpe)","description":"Handschwengelpumpe mit Brunnenschacht und Abdeckplatte vor Nr. 9 (Typ Delphin)","state":"intakt, aber nicht betriebsbereit [Anke] Brunnen verpresst [Bau und Service Leipzig GmbH]","feeding":null,"controls":null},"geometry":{"type":"Point","coordinates":[12.37493,51.34183]},"id":"75"},{"type":"Feature","properties":{"numberAnke":"76","numberOfficial":"257","name":"Handschwengelpumpe","district":"Zentrum-Nord","address":"Kickerlingsberg","date":"1910 (Handschwengelpumpe)","description":"Handschwengelpumpe mit Brunnenschacht und Abdeckplatte in Ecklage Springerstraße (Typ Großer Löwe); nur noch Pumpenfußteil vorhanden","state":"wahrscheinlich nur noch Stumpf vorhanden","feeding":null,"controls":null},"geometry":{"type":"Point","coordinates":[null,null]},"id":"76"},{"type":"Feature","properties":{"numberAnke":"77","numberOfficial":"239","name":"Handschwengelpumpe","district":"Reudnitz-Thonberg","address":"Kippenbergstraße 15","date":null,"description":"Handschwengelpumpe mit Brunnenschacht und Abdeckplatte","state":"abgebaut [Anke]","feeding":null,"controls":null},"geometry":{"type":"Point","coordinates":[12.405739,51.3352]},"id":"77"},{"type":"Feature","properties":{"numberAnke":"78","numberOfficial":"132","name":"Handschwengelpumpe","district":"Gohlis-Süd","address":"Kirchplatz","date":null,"description":"Handschwengelpumpe mit Brunnenschacht und Abdeckplatte (Typ Gotik) Kirchplatz Gohlis, an der Lützowstraße","state":"wahrscheinlich nur noch Stumpf vorhanden","feeding":null,"controls":null},"geometry":{"type":"Point","coordinates":[null,null]},"id":"78"},{"type":"Feature","properties":{"numberAnke":"79","numberOfficial":null,"name":"Handschwengelpumpe [abgebaut]","district":"Zentrum-Ost","address":"Lange Straße","date":null,"description":"Handschwengelpumpe mit Brunnenschacht und Abdeckplatte, nahe der Dresdner Straße","state":"abgebaut, mit großer Steinplatte abgedeckt [Anke]","feeding":null,"controls":null},"geometry":{"type":"Point","coordinates":[12.39381,51.33938]},"id":"79"},{"type":"Feature","properties":{"numberAnke":"80","numberOfficial":"245","name":"Handschwengelpumpe [abgebaut]","district":"Schönefeld-Abtnaundorf","address":"Lazarusstraße","date":null,"description":"Handschwengelpumpe mit Brunnenschacht und Abdeckplatte vor Nr. 24","state":"wahrscheinlich abgebaut","feeding":null,"controls":null},"geometry":{"type":"Point","coordinates":[12.41528,51.36083]},"id":"80"},{"type":"Feature","properties":{"numberAnke":"81","numberOfficial":"18","name":"Handschwengelpumpe","district":"Zentrum-Nordwest","address":"Leibnizstraße","date":null,"description":"Handschwengelpumpe Nr. 18 mit Brunnenschacht und Abdeckplatte (Typ Gotik) vor Nr. 15/17","state":"wahrscheinlich abgebaut","feeding":null,"controls":null},"geometry":{"type":"Point","coordinates":[null,null]},"id":"81"},{"type":"Feature","properties":{"numberAnke":"82","numberOfficial":"226","name":"Handschwengelpumpe","district":"Dölitz-Dösen","address":"Leinestraße","date":"um 1900 (Handschwengelpumpe)","description":"Handschwengelpumpe mit Brunnenschacht und Abdeckplatte auf einem kleinen Platz vor Nr. 52 (Typ Delphin; Insel hinter dem Teich)","state":"wahrscheinlich nur verosteter<Fragezeichen> Torso vorhanden","feeding":null,"controls":null},"geometry":{"type":"Point","coordinates":[12.41067,51.28604]},"id":"82"},{"type":"Feature","properties":{"numberAnke":"83","numberOfficial":"118","name":"Handschwengelpumpe","district":"Zentrum-Südost","address":"Leplaystraße","date":null,"description":"Handschwengelpumpe mit Brunnenschacht und Abdeckplatte Ecke Grünewaldstraße (Typ Gotik)","state":"abgebaut [Anke]","feeding":null,"controls":null},"geometry":{"type":"Point","coordinates":[12.378478,51.33439]},"id":"83"},{"type":"Feature","properties":{"numberAnke":"84","numberOfficial":"16","name":"Handschwengelpumpe [abgebaut]","district":"Zentrum-West","address":"Lessingstraße","date":null,"description":"Handschwengelpumpe Nr. 16 mit Brunnenschacht und Abdeckplatte vor Nr. 13","state":"wahrscheinlich abgebaut","feeding":null,"controls":null},"geometry":{"type":"Point","coordinates":[12.36584,51.34205]},"id":"84"},{"type":"Feature","properties":{"numberAnke":"85","numberOfficial":"265","name":"Handschwengelpumpe","district":"Gohlis-Süd","address":"Lindenthaler Straße","date":null,"description":"Handschwengelpumpe mit Brunnenschacht und Abdeckplatte in Ecklage Berggartenstraße vor Nr. 1 (Typ Delphin)","state":"wahrscheinlich nur verosteter<Fragezeichen> Torso vorhanden","feeding":null,"controls":null},"geometry":{"type":"Point","coordinates":[12.36543,51.35934]},"id":"85"},{"type":"Feature","properties":{"numberAnke":"86","numberOfficial":"235","name":"Handschwengelpumpe [rekonstruiert]","district":"Lößnig","address":"Lobstädter Straße 9","date":null,"description":"Handschwengelpumpe mit Brunnenschacht und Abdeckplatte vor Nr. 9 und in Ecklage Ernst-Toller-Straße (Typ Vogelkäfig)","state":null,"feeding":null,"controls":null},"geometry":{"type":"Point","coordinates":[12.38863,51.29841]},"id":"86"},{"type":"Feature","properties":{"numberAnke":"87","numberOfficial":"19","name":"Handschwengelpumpe [rekonstruiert]","district":"Zentrum-Nordwest","address":"Lortzingstraße 3","date":null,"description":"Handschwengelpumpe mit Brunnenschacht und Abdeckplatte vor Nr. 3, hinter dem Naturkundemuseum (Typ Delphin)","state":null,"feeding":null,"controls":null},"geometry":{"type":"Point","coordinates":[12.37062,51.34528]},"id":"87"},{"type":"Feature","properties":{"numberAnke":"89","numberOfficial":"62","name":"Handschwengelpumpe","district":"Neustadt-Neuschönefeld","address":"Ludwig-Erhard-Straße","date":null,"description":"Handschwengelpumpe mit Brunnenschacht und Abdeckplatte; Typ Kleiner Löwe","state":null,"feeding":null,"controls":null},"geometry":{"type":"Point","coordinates":[null,null]},"id":"89"},{"type":"Feature","properties":{"numberAnke":"88","numberOfficial":"66","name":"Handschwengelpumpe [rekonstruiert]","district":"Zentrum-Ost","address":"Ludwig-Erhard-Straße 53","date":null,"description":"Handschwengelpumpe mit Brunnenschacht und Abdeckplatte vor Nr. 51/53 (Typ Kleiner Löwe)","state":"betriebsbereit [Anke]","feeding":"bisher nicht erforderlich","controls":"21.7.21, 4.8.21"},"geometry":{"type":"Point","coordinates":[12.39305,51.34468]},"id":"88"},{"type":"Feature","properties":{"numberAnke":"90","numberOfficial":"188","name":"Handschwengelpumpe [Torso]","district":"Neustadt-Neuschönefeld","address":"Ludwigstraße","date":"um 1900 (Handschwengelpumpe)","description":"Handschwengelpumpe mit Brunnenschacht und Abdeckplatte in Ecklage Neustädter Straße (Typ Delphin), gegenüber Ludwigstraße 20","state":"wahrscheinlich nur alter Torso vorhanden","feeding":null,"controls":null},"geometry":{"type":"Point","coordinates":[12.40026,51.34663]},"id":"90"},{"type":"Feature","properties":{"numberAnke":"91","numberOfficial":"182","name":"Handschwengelpumpe","district":"Volkmarsdorf","address":"Ludwigstraße","date":null,"description":"Handschwengelpumpe mit Brunnenschacht und Abdeckplatte vor Haus Nr. 115 (Typ Delphin)","state":"wahrscheinlich nur alter Torso vorhanden","feeding":null,"controls":null},"geometry":{"type":"Point","coordinates":[12.41148,51.34602]},"id":"91"},{"type":"Feature","properties":{"numberAnke":"91","numberOfficial":"179","name":"Handschwengelpumpe","district":"Volkmarsdorf","address":"Ludwigstraße","date":null,"description":"Handschwengelpumpe mit Brunnenschacht und Abdeckplatte vor Nr. 99 in Ecklage Elisabethstraße (Typ Delphin)","state":"wahrscheinlich nur alter Torso vorhanden","feeding":null,"controls":null},"geometry":{"type":"Point","coordinates":[12.40892,51.34616]},"id":"91"},{"type":"Feature","properties":{"numberAnke":"92","numberOfficial":"25","name":"Handschwengelpumpe [rekonstruiert]","district":"Zentrum","address":"Magazingasse 1 (andere Straßenseite)","date":"nach 1910 (Handschwengelpumpe)","description":"Handschwengelpumpe mit Brunnenschacht und Abdeckplatte Ecke Neumarkt (Typ Vogelkäfig)","state":"Brunnen verpresst [Bau und Service Leipzig GmbH]","feeding":null,"controls":null},"geometry":{"type":"Point","coordinates":[12.37649,51.33728]},"id":"92"},{"type":"Feature","properties":{"numberAnke":"93","numberOfficial":"276","name":"Handschwengelpumpe [abgebaut]","district":"Eutritzsch","address":"Magnusstraße","date":"1910 (Handschwengelpumpe)","description":"Handschwengelpumpe mit Brunnenschacht und Abdeckplatte neben Haus Delitzscher Straße 160","state":"wahrscheinlich abgebaut","feeding":null,"controls":null},"geometry":{"type":"Point","coordinates":[12.38577,51.37448]},"id":"93"},{"type":"Feature","properties":{"numberAnke":"95","numberOfficial":"180","name":"Handschwengelpumpe [Torso]","district":"Volkmarsdorf","address":"Mariannenstraße","date":null,"description":"Torso einer Handschwengelpumpe mit Brunnenschacht und Abdeckplatte vor Nr. 91 in Ecklage eines öffentlichen Platzes und in Ecklage Elisabethstraße","state":"wahrscheinlich nur alter Torso vorhanden","feeding":null,"controls":null},"geometry":{"type":"Point","coordinates":[12.40906,51.34675]},"id":"95"},{"type":"Feature","properties":{"numberAnke":"96","numberOfficial":"181","name":"Handschwengelpumpe","district":"Volkmarsdorf","address":"Mariannenstraße","date":null,"description":"Handschwengelpumpe mit Brunnenschacht und Abdeckplatte vor Nr. 102 in Ecklage Idastraße (Typ Delphin)","state":"wahrscheinlich nur alter Torso vorhanden","feeding":null,"controls":null},"geometry":{"type":"Point","coordinates":[12.41151,51.34653]},"id":"96"},{"type":"Feature","properties":{"numberAnke":"97","numberOfficial":"184","name":"Handschwengelpumpe [abgebaut]","district":"Volkmarsdorf","address":"Mariannenstraße","date":null,"description":"Handschwengelpumpe mit Brunnenschacht und Abdeckplatte vor Nr. 121 in Ecklage Bennigsenstraße","state":"wahrscheinlich abgebaut","feeding":null,"controls":null},"geometry":{"type":"Point","coordinates":[12.41373,51.3465]},"id":"97"},{"type":"Feature","properties":{"numberAnke":"94","numberOfficial":"189","name":"Handschwengelpumpe [rekonstruiert]","district":"Neustadt-Neuschönefeld","address":"Mariannenstraße 10","date":null,"description":"Handschwengelpumpe mit Brunnenschacht und Abdeckplatte (Typ Delphin)","state":"betriebsbereit","feeding":null,"controls":null},"geometry":{"type":"Point","coordinates":[12.39777,51.3473]},"id":"94"},{"type":"Feature","properties":{"numberAnke":"98","numberOfficial":"64","name":"Handschwengelpumpe [rekonstruiert]","district":"Zentrum-Ost","address":"Marienplatz","date":null,"description":"Handschwengelpumpe mit Brunnenschacht und Abdeckplatte (Typ Delphin)","state":"betriebsbereit, wenn mit ca. 4 L Wasser gefüttert wurde","feeding":"21.7.21.","controls":"04.08.2021, 8.8.21"},"geometry":{"type":"Point","coordinates":[12.392808,51.34289]},"id":"98"},{"type":"Feature","properties":{"numberAnke":"99","numberOfficial":"93","name":"Handschwengelpumpe","district":"Zentrum-Süd","address":"Markthallenstraße","date":null,"description":"Handschwengelpumpe mit Brunnenschacht und Fassung","state":"Standort nicht gefunden, wahrscheinlich gar nicht mehr vorhanden (jetzt Eingang S-Bahn-Station) [Anke]","feeding":null,"controls":null},"geometry":{"type":"Point","coordinates":[null,null]},"id":"99"},{"type":"Feature","properties":{"numberAnke":"159","numberOfficial":null,"name":null,"district":"Liebertwolkwitz","address":"Marktplatz Liebertwolkwitz","date":null,"description":"(spezieller Typ)","state":null,"feeding":null,"controls":null},"geometry":{"type":"Point","coordinates":[null,null]},"id":"159"},{"type":"Feature","properties":{"numberAnke":"100","numberOfficial":"198","name":"Handschwengelpumpe [abgebaut]","district":"Connewitz","address":"Meusdorfer Straße","date":"19. September 2013 Pumpenkörper nicht mehr vorhanden","description":"Handschwengelpumpe mit Brunnenschacht und Abdeckplatte vor Nr. 61","state":"wahrscheinlich abgebaut","feeding":null,"controls":null},"geometry":{"type":"Point","coordinates":[12.38037,51.30647]},"id":"100"},{"type":"Feature","properties":{"numberAnke":"101","numberOfficial":"199","name":"Handschwengelpumpe","district":"Gohlis-Mitte","address":"Michael-Kazmierczak-Straße","date":null,"description":"Handschwengelpumpe mit Brunnenschacht und Abdeckplatte (Typ Delphin)","state":"wahrscheinlich nur verosteter<Fragezeichen> Torso vorhanden","feeding":null,"controls":null},"geometry":{"type":"Point","coordinates":[12.37288,51.3659]},"id":"101"},{"type":"Feature","properties":{"numberAnke":"102","numberOfficial":"201","name":"Handschwengelpumpe [Torso]","district":"Gohlis-Mitte","address":"Michael-Kazmierczak-Straße","date":null,"description":"Handschwengelpumpe mit Brunnenschacht und Abdeckplatte in Ecklage Adolf-Menzel-Straße (Typ Delphin)","state":"wahrscheinlich nur verosteter Torso vorhanden","feeding":null,"controls":null},"geometry":{"type":"Point","coordinates":[12.37357,51.36791]},"id":"102"},{"type":"Feature","properties":{"numberAnke":"103","numberOfficial":null,"name":null,"district":null,"address":"Naschmarkt (Löwenbrunnen)","date":null,"description":null,"state":"betriebsbereit","feeding":null,"controls":null},"geometry":{"type":"Point","coordinates":[12.375608,51.33997]},"id":"103"},{"type":"Feature","properties":{"numberAnke":"104, 105, 106","numberOfficial":"38","name":"Handschwengelpumpe [rekonstruiert]","district":"Zentrum","address":"Neumarkt 2","date":"1910 (Handschwengelpumpe)","description":"Handschwengelpumpe mit Brunnenschacht und Abdeckplatte vor Nr. 2 Ecke Grimmaische Straße (Typ Gotik); wiederaufgestellt nach Sanierung 2002","state":null,"feeding":null,"controls":null},"geometry":{"type":"Point","coordinates":[12.37647,51.33971]},"id":"104, 105, 106"},{"type":"Feature","properties":{"numberAnke":"107","numberOfficial":"39","name":"Handschwengelpumpe [rekonstruiert]","district":"Zentrum","address":"Neumarkt 24","date":"1910 (Handschwengelpumpe)","description":"Handschwengelpumpe mit Brunnenschacht und Abdeckplatte vor Nr. 24 (Typ Großer Löwe)","state":"betriebsbereit","feeding":null,"controls":null},"geometry":{"type":"Point","coordinates":[12.3762,51.33847]},"id":"107"},{"type":"Feature","properties":{"numberAnke":"108","numberOfficial":"138","name":"Handschwengelpumpe [abgebaut]","district":"Neustadt-Neuschönefeld","address":"Neustädter Markt","date":null,"description":"Handschwengelpumpe mit Brunnenschacht und Abdeckplatte an der Meißner Straße, in Nähe des Gefallenendenkmals vor der Kirche (Typ Kleiner Löwe) (Wasserpumpe abgebaut 12/1995)","state":"wahrscheinlich abgebaut","feeding":null,"controls":null},"geometry":{"type":"Point","coordinates":[12.40318,51.34771]},"id":"108"},{"type":"Feature","properties":{"numberAnke":"109","numberOfficial":"236","name":"Handschwengelpumpe [Torso]","district":"Schleußig","address":"Oeserstraße","date":"1910 (Handschwengelpumpe)","description":"Handschwengelpumpe mit Brunnenschacht in Ecklage Könneritzstraße Nr. 100 (Typ Großer Löwe)","state":"abgebaut [Thorsten]","feeding":null,"controls":null},"geometry":{"type":"Point","coordinates":[12.34106,51.3194]},"id":"109"},{"type":"Feature","properties":{"numberAnke":"110","numberOfficial":null,"name":"Brunnenschacht und Abdeckplatte einer Handschwengelpumpe","district":"Möckern","address":"Olbrichtstraße","date":null,"description":"Brunnenschacht und Abdeckplatte einer Handschwengelpumpe vor der Hoffront Haus 39 des ehemaligen Kasernengeländes","state":null,"feeding":null,"controls":null},"geometry":{"type":"Point","coordinates":[null,null]},"id":"110"},{"type":"Feature","properties":{"numberAnke":"111","numberOfficial":"243","name":"Handschwengelpumpe [rekonstruiert]","district":"Schönefeld-Abtnaundorf","address":"Ossietzkystraße / Robert-Blum-Straße","date":null,"description":"Handschwengelpumpe mit Brunnenschacht und Abdeckplatte an der Einmündung Robert-Blum-Straße (Typ Delphin)","state":"betriebsbereit, wenn mit ca. 5 L Wasser gefüttert wurde","feeding":"14.07.2021","controls":null},"geometry":{"type":"Point","coordinates":[12.41243,51.35949]},"id":"111"},{"type":"Feature","properties":{"numberAnke":"112","numberOfficial":null,"name":"Drei Handschwengelpumpen","district":"Anger-Crottendorf","address":"Oststraße 119","date":null,"description":"Drei Handschwengelpumpen mit Brunnenschacht und Abdeckplatte auf dem Ostfriedhof, 3. Abteilung und vor der Kapelle Oststraße Nr. 119","state":null,"feeding":null,"controls":null},"geometry":{"type":"Point","coordinates":[12.418274,51.32845]},"id":"112"},{"type":"Feature","properties":{"numberAnke":"113","numberOfficial":"176","name":"Handschwengelpumpe [abgebaut]","district":"Zentrum-Süd","address":"Paul-Gruner-Straße","date":null,"description":"Handschwengelpumpe mit Brunnenschacht und Abdeckplatte in Ecklage Arthur-Hoffmann-Straße","state":"abgebaut [Anke]","feeding":null,"controls":null},"geometry":{"type":"Point","coordinates":[12.37985,51.32764]},"id":"113"},{"type":"Feature","properties":{"numberAnke":"114","numberOfficial":"191","name":"Handschwengelpumpe","district":"Zentrum-Süd","address":"Paul-Gruner-Straße","date":null,"description":"Handschwengelpumpe mit Brunnenschacht und Abdeckplatte (am Floßplatz)","state":"Standort wahrscheinlich nicht mehr vorhanden","feeding":null,"controls":null},"geometry":{"type":"Point","coordinates":[null,null]},"id":"114"},{"type":"Feature","properties":{"numberAnke":"115","numberOfficial":"1","name":"Handschwengelpumpe [rekonstruiert]","district":"Zentrum-Süd","address":"Peterssteinweg 10","date":"nach 1910 (Handschwengelpumpe)","description":"Handschwengelpumpe mit Brunnenschacht und Abdeckplatte in Ecklage Münzgasse (Typ Vogelkäfig)","state":"betriebsbereit","feeding":null,"controls":null},"geometry":{"type":"Point","coordinates":[12.37349,51.33278]},"id":"115"},{"type":"Feature","properties":{"numberAnke":"116","numberOfficial":"114","name":"Handschwengelpumpe [rekonstruiert]","district":"Zentrum-Nord","address":"Pfaffendorfer Straße / Ernst-Pinkert-Straße","date":null,"description":"Handschwengelpumpe mit Brunnenschacht und Abdeckplatte in Ecklage Ernst-Pinkert-Straße (Typ Gotik)","state":"betriebsbereit","feeding":null,"controls":null},"geometry":{"type":"Point","coordinates":[12.37232,51.34945]},"id":"116"},{"type":"Feature","properties":{"numberAnke":"117","numberOfficial":"156","name":"Handschwengelpumpe","district":"Zentrum-Südost","address":"Philipp-Rosenthal-Straße","date":null,"description":"Handschwengelpumpe mit Brunnenschacht und Abdeckplatte in den ehemaligen Gärten zwischen Philipp-Rosenthal-Straße und Prager Straße (Typ K)","state":"Standort nicht gefunden, wahrscheinlich abgebaut [Anke]","feeding":null,"controls":null},"geometry":{"type":"Point","coordinates":[null,null]},"id":"117"},{"type":"Feature","properties":{"numberAnke":"118","numberOfficial":"195","name":"Handschwengelpumpe [Torso]","district":"Stötteritz","address":"Prager Straße / Egon-Erwin-Kisch-Weg","date":"1910 (Handschwengelpumpe), 19. September 2013 nur noch Pumpenunterteil vorhanden","description":"Handschwengelpumpe mit Brunnenschacht und Abdeckplatte in Ecklage Egon-Erwin-Kisch-Weg (Typ Großer Löwe)","state":"abgebaut, nur noch Pumpenunterteil vorhanden [Anke]","feeding":null,"controls":null},"geometry":{"type":"Point","coordinates":[12.40961,51.31665]},"id":"118"},{"type":"Feature","properties":{"numberAnke":"119","numberOfficial":"159","name":"Handschwengelpumpe","district":"Connewitz","address":"Prinz-Eugen-Straße","date":null,"description":"Handschwengelpumpe mit Brunnenschacht und Abdeckplatte vor Nr. 11","state":"wahrscheinlich abgebaut","feeding":null,"controls":null},"geometry":{"type":"Point","coordinates":[null,null]},"id":"119"},{"type":"Feature","properties":{"numberAnke":"120","numberOfficial":"177","name":"Handschwengelpumpe","district":"Connewitz","address":"Prinz-Eugen-Straße","date":null,"description":"Handschwengelpumpe mit Brunnenschacht und Abdeckplatte gegenüber Nr. 29, neben Nr. 25 (am ehemaligen Dorfteich Connewitz)","state":null,"feeding":null,"controls":null},"geometry":{"type":"Point","coordinates":[null,null]},"id":"120"},{"type":"Feature","properties":{"numberAnke":"121","numberOfficial":"160","name":"Handschwengelpumpe","district":"Connewitz","address":"Prinz-Eugen-Straße 19","date":null,"description":"Handschwengelpumpe mit Brunnenschacht und Abdeckplatte auf dem Grundstückshof (Privatgelände)","state":"könnte intakt sein!<Fragezeichen>","feeding":null,"controls":null},"geometry":{"type":"Point","coordinates":[12.37913,51.30182]},"id":"121"},{"type":"Feature","properties":{"numberAnke":"122","numberOfficial":"141","name":"Handschwengelpumpe [abgebaut]","district":"Neustadt-Neuschönefeld","address":"Rabet","date":null,"description":"Handschwengelpumpe mit Brunnenschacht und Abdeckplatte gegenüber Nr. 14 (Typ Delphin)","state":"wahrscheinlich nur alter Torso vorhanden","feeding":null,"controls":null},"geometry":{"type":"Point","coordinates":[12.4016,51.34379]},"id":"122"},{"type":"Feature","properties":{"numberAnke":"123","numberOfficial":"63","name":"Handschwengelpumpe [abgebaut]","district":"Zentrum-Ost","address":"Reudnitzer Straße 7-9","date":null,"description":"Handschwengelpumpe mit Brunnenschacht und Abdeckplatte gegenüber Nr. 7/9","state":"wahrscheinlich abgebaut","feeding":null,"controls":null},"geometry":{"type":"Point","coordinates":[12.39203,51.34396]},"id":"123"},{"type":"Feature","properties":{"numberAnke":"124","numberOfficial":"279","name":"Handschwengelpumpe","district":"Reudnitz-Thonberg","address":"Riebeckstraße 29","date":"1910 (Handschwengelpumpe)","description":"Handschwengelpumpe mit Brunnenschacht vor Nr. 29 in Ecklage Witzgallstraße (Typ Großer Löwe)","state":"Standort nicht gefunden, wahrscheinlich bepflanzt [Anke]","feeding":null,"controls":null},"geometry":{"type":"Point","coordinates":[null,null]},"id":"124"},{"type":"Feature","properties":{"numberAnke":"125","numberOfficial":"123","name":"Handschwengelpumpe","district":"Zentrum-Süd","address":"Riemannstraße 54","date":"um 1910 (Handschwengelpumpe)","description":"Handschwengelpumpe mit Brunnenschacht in Ecklage Harkortstraße, gegenüber Riemannstraße 54 (Typ Kleiner Löwe)","state":"wahrscheinlich abgebaut","feeding":null,"controls":null},"geometry":{"type":"Point","coordinates":[null,null]},"id":"125"},{"type":"Feature","properties":{"numberAnke":"126","numberOfficial":"212","name":"Handschwengelpumpe","district":"Sellerhausen-Stünz","address":"Riesaer Straße 1","date":null,"description":"Handschwengelpumpe mit Brunnenschacht und Abdeckplatte","state":"verrosteter Torso mit Schwengel vorhanden [Rüdiger]","feeding":null,"controls":null},"geometry":{"type":"Point","coordinates":[12.438182,51.346584]},"id":"126"},{"type":"Feature","properties":{"numberAnke":"127","numberOfficial":"252","name":null,"district":null,"address":"Ritterstraße","date":null,"description":"Abzweig n. Goethestr. ","state":"wahrscheinlich abgebaut","feeding":null,"controls":null},"geometry":{"type":"Point","coordinates":[null,null]},"id":"127"},{"type":"Feature","properties":{"numberAnke":"128","numberOfficial":"60","name":"Handschwengelpumpe","district":"Zentrum-Ost","address":"Rosa-Luxemburg-Straße","date":"1910 (Handschwengelpumpe)","description":"Handschwengelpumpe mit Brunnenschacht und Abdeckplatte Ecke Hofmeisterstraße (Typ Großer Löwe)","state":"wahrscheinlich intakt","feeding":null,"controls":null},"geometry":{"type":"Point","coordinates":[12.3874,51.34381]},"id":"128"},{"type":"Feature","properties":{"numberAnke":"129","numberOfficial":null,"name":"Handschwengelpumpe","district":"Neustadt-Neuschönefeld","address":"Rosa-Luxemburg-Straße","date":"1900/1905 (Handschwengelpumpe)","description":"Handschwengelpumpe mit Brunnenschacht und Abdeckplatte, Typ Kleiner Löwe","state":null,"feeding":null,"controls":null},"geometry":{"type":"Point","coordinates":[null,null]},"id":"129"},{"type":"Feature","properties":{"numberAnke":"130","numberOfficial":null,"name":"Handschwengelpumpe [rekonstruiert]","district":"Liebertwolkwitz","address":"Roßmarkt","date":"um 1890 (Handschwengelpumpe)","description":"Handschwengelpumpe mit Brunnenschacht und Abdeckplatte; sehr schlanke Form, kulturhistorische Bedeutung","state":"betriebsbereit","feeding":null,"controls":null},"geometry":{"type":"Point","coordinates":[12.4645,51.28472]},"id":"130"},{"type":"Feature","properties":{"numberAnke":"131","numberOfficial":"225","name":"Handschwengelpumpe","district":"Probstheida","address":"Russenstraße","date":null,"description":"Handschwengelpumpe mit Brunnenschacht und Abdeckplatte gegenüber Einmündung der Augustinerstraße","state":"wahrscheinlich abgebaut","feeding":null,"controls":null},"geometry":{"type":"Point","coordinates":[12.42762,51.30642]},"id":"131"},{"type":"Feature","properties":{"numberAnke":"132","numberOfficial":null,"name":"Handschwengelpumpe","district":"Probstheida","address":"Russenstraße 4 (im Park an der Russenstraße)","date":null,"description":"Handschwengelpumpe mit Brunnenschacht und Abdeckplatte vor Nr. 4 auf dem Dorfanger (Typ Delphin)","state":"abgebaut [Anke]","feeding":null,"controls":null},"geometry":{"type":"Point","coordinates":[12.424983,51.306683]},"id":"132"},{"type":"Feature","properties":{"numberAnke":"133","numberOfficial":"197","name":"Handschwengelpumpe","district":"Gohlis-Süd","address":"Schachtstraße","date":null,"description":"Handschwengelpumpe mit Brunnenschacht und Abdeckplatte in Ecklage Georg-Schumann-Straße (Typ Delphin)","state":"wahrscheinlich nur verosteter<Fragezeichen> Torso vorhanden","feeding":null,"controls":null},"geometry":{"type":"Point","coordinates":[12.36019,51.3638]},"id":"133"},{"type":"Feature","properties":{"numberAnke":"134","numberOfficial":"233","name":"Handschwengelpumpe","district":"Eutritzsch","address":"Schiebestraße","date":null,"description":"Handschwengelpumpe mit Brunnenschacht und Abdeckplatte, in Ecklage Magdalenenstraße (Typ Vogelkäfig)","state":"wahrscheinlich abgebaut","feeding":null,"controls":null},"geometry":{"type":"Point","coordinates":[null,null]},"id":"134"},{"type":"Feature","properties":{"numberAnke":"135","numberOfficial":"57","name":"Handschwengelpumpe [rekonstruiert]","district":"Zentrum-Ost","address":"Schützenstraße 8","date":null,"description":"Handschwengelpumpe mit Brunnenschacht Ecke Querstraße vor Nr. 8/10 (Typ Gotik)","state":null,"feeding":null,"controls":null},"geometry":{"type":"Point","coordinates":[12.384303,51.34243]},"id":"135"},{"type":"Feature","properties":{"numberAnke":"136","numberOfficial":"217","name":"Handschwengelpumpe","district":"Zentrum-West","address":"Sebastian-Bach-Straße","date":null,"description":"Handschwengelpumpe mit Brunnenschacht und Abdeckplatte in Ecklage Schreberstraße (Ganzplatte)","state":"Standort nicht mehr vorhanden [Bau und Service GmbH]","feeding":null,"controls":null},"geometry":{"type":"Point","coordinates":[null,null]},"id":"136"},{"type":"Feature","properties":{"numberAnke":"138","numberOfficial":"85","name":"Handschwengelpumpe [abgebaut]","district":"Zentrum-Südost","address":"Seeburgstraße","date":null,"description":"Handschwengelpumpe mit Brunnenschacht und Abdeckplatte vor Talstraße 12b","state":"Standort nicht gefunden [Anke]","feeding":null,"controls":null},"geometry":{"type":"Point","coordinates":[12.38556,51.33449]},"id":"138"},{"type":"Feature","properties":{"numberAnke":"139","numberOfficial":"87","name":"Handschwengelpumpe [abgebaut]","district":"Zentrum-Südost","address":"Seeburgstraße 11","date":null,"description":"Handschwengelpumpe mit Brunnenschacht und Abdeckplatte vor Nr. 11","state":"abgebaut [Anke]","feeding":null,"controls":null},"geometry":{"type":"Point","coordinates":[12.38259,51.33512]},"id":"139"},{"type":"Feature","properties":{"numberAnke":"137","numberOfficial":"86","name":"Handschwengelpumpe [abgebaut]","district":"Zentrum-Südost","address":"Seeburgstraße 11 (andere Straßenseite)","date":null,"description":"Handschwengelpumpe mit Brunnenschacht und Abdeckplatte in Ecklage Nürnberger Straße","state":"abgebaut [Anke]","feeding":null,"controls":null},"geometry":{"type":"Point","coordinates":[12.38325,51.33488]},"id":"137"},{"type":"Feature","properties":{"numberAnke":"140","numberOfficial":"289","name":"Handschwengelpumpe","district":"Stötteritz","address":"Sommerfelder Straße 14 (andere Straßenseite)","date":null,"description":"Handschwengelpumpe mit Brunnenschacht und Abdeckplatte sowie Wartungsschacht auf dem Schmuckplatz an der Stötteritzer Kirche","state":"abgebaut [Anke] --> wäre schöner Standort","feeding":null,"controls":null},"geometry":{"type":"Point","coordinates":[12.424345,51.3207]},"id":"140"},{"type":"Feature","properties":{"numberAnke":"141","numberOfficial":"88","name":"Handschwengelpumpe [abgebaut]","district":"Zentrum-Südost","address":"Sternwartenstraße 23","date":null,"description":"Handschwengelpumpe mit Brunnenschacht und Abdeckplatte vor Nr. 23/25 (Typ Gotik)","state":"abgebaut [Anke]","feeding":null,"controls":null},"geometry":{"type":"Point","coordinates":[12.38084,51.33489]},"id":"141"},{"type":"Feature","properties":{"numberAnke":"142","numberOfficial":"167","name":"Handschwengelpumpe","district":"Neulindenau","address":"Stockmannstraße","date":null,"description":"Handschwengelpumpe mit Brunnenschacht und Abdeckplatte vor dem Haupteingang zum Plagwitzer Friedhof","state":"wahrscheinlich nur alter Torso vorhanden","feeding":null,"controls":null},"geometry":{"type":"Point","coordinates":[12.31948,51.32566]},"id":"142"},{"type":"Feature","properties":{"numberAnke":"143","numberOfficial":"152","name":"Handschwengelpumpe [abgebaut]","district":"Reudnitz-Thonberg","address":"Täubchenweg","date":null,"description":"Handschwengelpumpe mit Brunnenschacht und Abdeckplatte vor Nr. 51/53 (Typ Delphin)","state":"abgebaut [Anke]","feeding":null,"controls":null},"geometry":{"type":"Point","coordinates":[12.40146,51.3362]},"id":"143"},{"type":"Feature","properties":{"numberAnke":"144","numberOfficial":"200","name":"Handschwengelpumpe","district":"Eutritzsch","address":"Theresienstraße","date":"um 1910 (Wasserversorgungs- und Abwasseranlage)","description":"Handschwengelpumpe mit Brunnenschacht und Abdeckplatte in Ecklage Haferkornstraße (Typ Delphin; im Juli 1993 abgebaut)","state":"wahrscheinlich abgebaut","feeding":null,"controls":null},"geometry":{"type":"Point","coordinates":[null,null]},"id":"144"},{"type":"Feature","properties":{"numberAnke":"145","numberOfficial":null,"name":"Handschwengelpumpe [abgebaut]","district":"Volkmarsdorf","address":"Torgauer Straße","date":null,"description":"Handschwengelpumpe mit Brunnenschacht und Abdeckplatte in Ecklage Wurzner Straße (Typ Kleiner Löwe)","state":null,"feeding":null,"controls":null},"geometry":{"type":"Point","coordinates":[12.41142,51.3422]},"id":"145"},{"type":"Feature","properties":{"numberAnke":"146","numberOfficial":"210","name":"Handschwengelpumpe [rekonstruiert]","district":"Zentrum","address":"Universitätsstraße 16","date":null,"description":"Handschwengelpumpe mit Brunnenschacht und Abdeckplatte vor dem Städtischen Kaufhaus (Typ Kleiner Löwe)","state":"betriebsbereit","feeding":null,"controls":null},"geometry":{"type":"Point","coordinates":[12.37755,51.33852]},"id":"146"},{"type":"Feature","properties":{"numberAnke":"147","numberOfficial":"215","name":"Handschwengelpumpe [Torso]","district":"Gohlis-Mitte","address":"Virchowstraße","date":null,"description":"Handschwengelpumpe mit Brunnenschacht vor Nr. 7 in Ecklage Daumierstraße (Typ Kleiner Löwe)","state":"wahrscheinlich nur noch Stumpf vorhanden","feeding":null,"controls":null},"geometry":{"type":"Point","coordinates":[12.37537,51.3656]},"id":"147"},{"type":"Feature","properties":{"numberAnke":"148","numberOfficial":null,"name":null,"district":null,"address":"Volkmarsdorfer Markt","date":null,"description":null,"state":null,"feeding":null,"controls":null},"geometry":{"type":"Point","coordinates":[null,null]},"id":"148"},{"type":"Feature","properties":{"numberAnke":"149","numberOfficial":"282","name":"Handschwengelpumpe","district":"Reudnitz-Thonberg","address":"Vor dem Hospitaltore 1","date":null,"description":"Handschwengelpumpe mit Brunnenschacht und Abdeckplatte (Typ Delphin<Fragezeichen>)","state":"abgebaut, mit großer Metallplatte versiegelt [Anke]","feeding":null,"controls":null},"geometry":{"type":"Point","coordinates":[12.395456,51.33118]},"id":"149"},{"type":"Feature","properties":{"numberAnke":"150","numberOfficial":"17","name":"Handschwengelpumpe [rekonstruiert]","district":"Zentrum-Nordwest","address":"Waldstraße 48","date":null,"description":"Handschwengelpumpe mit Brunnenschacht und Abdeckplatte vor Nr. 48 (Typ Gotik)","state":null,"feeding":null,"controls":null},"geometry":{"type":"Point","coordinates":[12.35732,51.34554]},"id":"150"},{"type":"Feature","properties":{"numberAnke":"151","numberOfficial":"186","name":"Handschwengelpumpe","district":"Anger-Crottendorf","address":"Wichernstraße","date":null,"description":"Handschwengelpumpe mit Brunnenschacht und Abdeckplatte neben Nr. 2 in Ecklage Zweinaundorfer Straße (Typ Delphin)","state":"wahrscheinlich abgebaut","feeding":null,"controls":null},"geometry":{"type":"Point","coordinates":[12.41971,51.33327]},"id":"151"},{"type":"Feature","properties":{"numberAnke":"152","numberOfficial":"241","name":"Handschwengelpumpe","district":"Altlindenau","address":"William-Zipperer-Straße","date":null,"description":"Handschwengelpumpe mit Brunnenschacht und Abdeckplatte in Ecklage Calvisiusstraße (Typ Vogelkäfig)","state":"wahrscheinlich abgebaut","feeding":null,"controls":null},"geometry":{"type":"Point","coordinates":[null,null]},"id":"152"},{"type":"Feature","properties":{"numberAnke":"154","numberOfficial":"165","name":"Handschwengelpumpe [abgebaut]","district":"Kleinzschocher","address":"Windorfer Straße","date":null,"description":"Handschwengelpumpe mit Brunnenschacht und Abdeckplatte vor Nr. 46/48 (Typ Delphin), möglicherweise nach Restaurierung vor Taborkirche versetzt (siehe Bild)","state":null,"feeding":null,"controls":null},"geometry":{"type":"Point","coordinates":[12.32851,51.31714]},"id":"154"},{"type":"Feature","properties":{"numberAnke":"156","numberOfficial":null,"name":null,"district":null,"address":"Windorfer Straße","date":null,"description":null,"state":null,"feeding":null,"controls":null},"geometry":{"type":"Point","coordinates":[null,null]},"id":"156"},{"type":"Feature","properties":{"numberAnke":"155","numberOfficial":"163","name":"Handschwengelpumpe [abgebaut]","district":"Kleinzschocher","address":"Windorfer Straße 55a","date":null,"description":"Handschwengelpumpe mit Brunnenschacht und Abdeckplatte vor Nr. 55","state":"betriebsbereit","feeding":null,"controls":null},"geometry":{"type":"Point","coordinates":[12.32707,51.31314]},"id":"155"},{"type":"Feature","properties":{"numberAnke":"157","numberOfficial":"204","name":"Handschwengelpumpe","district":"Eutritzsch","address":"Wittenberger Straße","date":null,"description":"Handschwengelpumpe mit Brunnenschacht und Abdeckplatte in Ecklage Dessauer Straße (Typ Delphin)","state":"wahrscheinlich nur alter Torso vorhanden","feeding":null,"controls":null},"geometry":{"type":"Point","coordinates":[12.3872,51.35722]},"id":"157"},{"type":"Feature","properties":{"numberAnke":"158","numberOfficial":"185","name":"Handschwengelpumpe","district":"Sellerhausen-Stünz","address":"Wurzner Straße","date":"um 1910 (Handschwengelpumpe)","description":"Handschwengelpumpe mit Brunnenschacht und Abdeckplatte vor Nr. 143a (Typ Delphin)","state":"wahrscheinlich nur alter Torso vorhanden","feeding":null,"controls":null},"geometry":{"type":"Point","coordinates":[12.42677,51.34355]},"id":"158"}]}