{"type":"FeatureCollection","features":[{"type":"Feature","properties":{"numberAnke":"18","numberOfficial":"270","name":"Handschwengelpumpe [rekonstruiert]","district":"Connewitz","address":"Bornaische Straße 3c","date":"1910 (Handschwengelpumpe)","description":"Gusseiserne Handschwengelpumpe mit Brunnenschacht und Abdeckplatte (Typ Großer Löwe); Wiederaufstellung nach Sanierung 30. August 2000","state":null,"feeding":"10.8.21 (erfolglos)","controls":null},"geometry":{"type":"Point","coordinates":[12.3746,51.30948]},"id":"18"},{"type":"Feature","properties":{"numberAnke":"60","numberOfficial":"262","name":"Handschwengelpumpe [abgebaut]","district":"Connewitz","address":"Herderstraße","date":"19. September 2013 Pumpenkörper nicht mehr vorhanden","description":"Handschwengelpumpe mit Brunnenschacht und Abdeckplatte in Ecklage Biedermannstraße (am Herderplatz)","state":"wahrscheinlich abgebaut","feeding":null,"controls":null},"geometry":{"type":"Point","coordinates":[12.37538,51.30804]},"id":"60"},{"type":"Feature","properties":{"numberAnke":"100","numberOfficial":"198","name":"Handschwengelpumpe [abgebaut]","district":"Connewitz","address":"Meusdorfer Straße","date":"19. September 2013 Pumpenkörper nicht mehr vorhanden","description":"Handschwengelpumpe mit Brunnenschacht und Abdeckplatte vor Nr. 61","state":"wahrscheinlich abgebaut","feeding":null,"controls":null},"geometry":{"type":"Point","coordinates":[12.38037,51.30647]},"id":"100"},{"type":"Feature","properties":{"numberAnke":"119","numberOfficial":"159","name":"Handschwengelpumpe","district":"Connewitz","address":"Prinz-Eugen-Straße","date":null,"description":"Handschwengelpumpe mit Brunnenschacht und Abdeckplatte vor Nr. 11","state":"wahrscheinlich abgebaut","feeding":null,"controls":null},"geometry":{"type":"Point","coordinates":[null,null]},"id":"119"},{"type":"Feature","properties":{"numberAnke":"120","numberOfficial":"177","name":"Handschwengelpumpe","district":"Connewitz","address":"Prinz-Eugen-Straße","date":null,"description":"Handschwengelpumpe mit Brunnenschacht und Abdeckplatte gegenüber Nr. 29, neben Nr. 25 (am ehemaligen Dorfteich Connewitz)","state":null,"feeding":null,"controls":null},"geometry":{"type":"Point","coordinates":[null,null]},"id":"120"},{"type":"Feature","properties":{"numberAnke":"121","numberOfficial":"160","name":"Handschwengelpumpe","district":"Connewitz","address":"Prinz-Eugen-Straße 19","date":null,"description":"Handschwengelpumpe mit Brunnenschacht und Abdeckplatte auf dem Grundstückshof (Privatgelände)","state":"könnte intakt sein!<Fragezeichen>","feeding":null,"controls":null},"geometry":{"type":"Point","coordinates":[12.37913,51.30182]},"id":"121"}]}