{"type":"FeatureCollection","features":[{"type":"Feature","properties":{"numberAnke":"11, 12,  13","numberOfficial":"284, 285, 286","name":"Drei Handschwengelpumpen","district":"Eutritzsch","address":"Berliner Straße 125-127","date":null,"description":"Drei Handschwengelpumpen mit Brunnenschacht und Abdeckplatte; eine Pumpe Typ Gotik","state":null,"feeding":null,"controls":null},"geometry":{"type":"Point","coordinates":[12.39653,51.3605]},"id":"11, 12,  13"},{"type":"Feature","properties":{"numberAnke":"32","numberOfficial":null,"name":"Handschwengelpumpe","district":"Eutritzsch","address":"Delitzscher Straße 141","date":null,"description":"Handschwengelpumpe mit Brunnenschacht und Abdeckplatte im Städtischen Klinikum „St. Georg“ Leipzig","state":null,"feeding":null,"controls":null},"geometry":{"type":"Point","coordinates":[null,null]},"id":"32"},{"type":"Feature","properties":{"numberAnke":"55","numberOfficial":"136","name":"Handschwengelpumpe [rekonstruiert]","district":"Eutritzsch","address":"Gräfestraße 7","date":null,"description":"Handschwengelpumpe mit Brunnenschacht und Abdeckplatte (Typ Kleiner Löwe)","state":"betriebsbereit","feeding":null,"controls":null},"geometry":{"type":"Point","coordinates":[12.38442,51.36959]},"id":"55"},{"type":"Feature","properties":{"numberAnke":"64","numberOfficial":"203","name":"Handschwengelpumpe [rekonstruiert]","district":"Eutritzsch","address":"Hohmannstraße / Berliner Straße","date":null,"description":"Handschwengelpumpe mit Brunnenschacht und Abdeckplatte in Ecklage Berliner Straße (Typ Delphin)","state":null,"feeding":null,"controls":null},"geometry":{"type":"Point","coordinates":[12.3935,51.35715]},"id":"64"},{"type":"Feature","properties":{"numberAnke":"93","numberOfficial":"276","name":"Handschwengelpumpe [abgebaut]","district":"Eutritzsch","address":"Magnusstraße","date":"1910 (Handschwengelpumpe)","description":"Handschwengelpumpe mit Brunnenschacht und Abdeckplatte neben Haus Delitzscher Straße 160","state":"wahrscheinlich abgebaut","feeding":null,"controls":null},"geometry":{"type":"Point","coordinates":[12.38577,51.37448]},"id":"93"},{"type":"Feature","properties":{"numberAnke":"134","numberOfficial":"233","name":"Handschwengelpumpe","district":"Eutritzsch","address":"Schiebestraße","date":null,"description":"Handschwengelpumpe mit Brunnenschacht und Abdeckplatte, in Ecklage Magdalenenstraße (Typ Vogelkäfig)","state":"wahrscheinlich abgebaut","feeding":null,"controls":null},"geometry":{"type":"Point","coordinates":[null,null]},"id":"134"},{"type":"Feature","properties":{"numberAnke":"144","numberOfficial":"200","name":"Handschwengelpumpe","district":"Eutritzsch","address":"Theresienstraße","date":"um 1910 (Wasserversorgungs- und Abwasseranlage)","description":"Handschwengelpumpe mit Brunnenschacht und Abdeckplatte in Ecklage Haferkornstraße (Typ Delphin; im Juli 1993 abgebaut)","state":"wahrscheinlich abgebaut","feeding":null,"controls":null},"geometry":{"type":"Point","coordinates":[null,null]},"id":"144"},{"type":"Feature","properties":{"numberAnke":"157","numberOfficial":"204","name":"Handschwengelpumpe","district":"Eutritzsch","address":"Wittenberger Straße","date":null,"description":"Handschwengelpumpe mit Brunnenschacht und Abdeckplatte in Ecklage Dessauer Straße (Typ Delphin)","state":"wahrscheinlich nur alter Torso vorhanden","feeding":null,"controls":null},"geometry":{"type":"Point","coordinates":[12.3872,51.35722]},"id":"157"}]}