{"type":"FeatureCollection","features":[{"type":"Feature","properties":{"numberAnke":"21","numberOfficial":null,"name":"Handschwengelpumpe","district":"Gohlis-Mitte","address":"Breitenfelder Straße","date":null,"description":"Handschwengelpumpe und Brunnenschacht und Abdeckplatte in Ecklage, an einer kleinen Grünanlage","state":null,"feeding":null,"controls":null},"geometry":{"type":"Point","coordinates":[null,null]},"id":"21"},{"type":"Feature","properties":{"numberAnke":"29","numberOfficial":"259","name":"Handschwengelpumpe","district":"Gohlis-Mitte","address":"Coppiplatz","date":null,"description":"Handschwengelpumpe mit Brunnenschacht und Abdeckplatte (Ganzplatte) zwischen Landsberger Straße und Heinrich-Budde-Straße","state":"wahrscheinlich abgebaut","feeding":null,"controls":null},"geometry":{"type":"Point","coordinates":[12.6712,51.3672]},"id":"29"},{"type":"Feature","properties":{"numberAnke":"68","numberOfficial":"190","name":"Handschwengelpumpe","district":"Gohlis-Mitte","address":"Jägerstraße","date":null,"description":"Handschwengelpumpe mit Brunnenschacht und Abdeckplatte vor Nr. 2, Ecke Landsberger Straße","state":"wahrscheinlich abgebaut","feeding":null,"controls":null},"geometry":{"type":"Point","coordinates":[null,null]},"id":"68"},{"type":"Feature","properties":{"numberAnke":"101","numberOfficial":"199","name":"Handschwengelpumpe","district":"Gohlis-Mitte","address":"Michael-Kazmierczak-Straße","date":null,"description":"Handschwengelpumpe mit Brunnenschacht und Abdeckplatte (Typ Delphin)","state":"wahrscheinlich nur verosteter<Fragezeichen> Torso vorhanden","feeding":null,"controls":null},"geometry":{"type":"Point","coordinates":[12.37288,51.3659]},"id":"101"},{"type":"Feature","properties":{"numberAnke":"102","numberOfficial":"201","name":"Handschwengelpumpe [Torso]","district":"Gohlis-Mitte","address":"Michael-Kazmierczak-Straße","date":null,"description":"Handschwengelpumpe mit Brunnenschacht und Abdeckplatte in Ecklage Adolf-Menzel-Straße (Typ Delphin)","state":"wahrscheinlich nur verosteter Torso vorhanden","feeding":null,"controls":null},"geometry":{"type":"Point","coordinates":[12.37357,51.36791]},"id":"102"},{"type":"Feature","properties":{"numberAnke":"147","numberOfficial":"215","name":"Handschwengelpumpe [Torso]","district":"Gohlis-Mitte","address":"Virchowstraße","date":null,"description":"Handschwengelpumpe mit Brunnenschacht vor Nr. 7 in Ecklage Daumierstraße (Typ Kleiner Löwe)","state":"wahrscheinlich nur noch Stumpf vorhanden","feeding":null,"controls":null},"geometry":{"type":"Point","coordinates":[12.37537,51.3656]},"id":"147"}]}