{"type":"FeatureCollection","features":[{"type":"Feature","properties":{"numberAnke":"33","numberOfficial":"173","name":"Handschwengelpumpe [abgebaut]","district":"Kleinzschocher","address":"Dieskaustraße","date":null,"description":"Handschwengelpumpe und Brunnenschacht und Abdeckplatte vor Nr. 51, gegenüber 36/38","state":"wahrscheinlich abgebaut","feeding":null,"controls":null},"geometry":{"type":"Point","coordinates":[12.32703,51.31685]},"id":"33"},{"type":"Feature","properties":{"numberAnke":"34","numberOfficial":"174","name":"Handschwengelpumpe [abgebaut]","district":"Kleinzschocher","address":"Dieskaustraße","date":null,"description":"Handschwengelpumpe mit Brunnenschacht und Abdeckplatte vor Nr. 50","state":"wahrscheinlich abgebaut","feeding":null,"controls":null},"geometry":{"type":"Point","coordinates":[12.32644,51.31625]},"id":"34"},{"type":"Feature","properties":{"numberAnke":"35","numberOfficial":"172","name":"Handschwengelpumpe","district":"Kleinzschocher","address":"Dieskaustraße","date":null,"description":"Handschwengelpumpe mit Brunnenschacht und Abdeckplatte vor Nr. 12 in Nähe Ecklage Wigandstraße (Typ Delphin)","state":"wahrscheinlich abgebaut","feeding":null,"controls":null},"geometry":{"type":"Point","coordinates":[12.32905,51.3195]},"id":"35"},{"type":"Feature","properties":{"numberAnke":"154","numberOfficial":"165","name":"Handschwengelpumpe [abgebaut]","district":"Kleinzschocher","address":"Windorfer Straße","date":null,"description":"Handschwengelpumpe mit Brunnenschacht und Abdeckplatte vor Nr. 46/48 (Typ Delphin), möglicherweise nach Restaurierung vor Taborkirche versetzt (siehe Bild)","state":null,"feeding":null,"controls":null},"geometry":{"type":"Point","coordinates":[12.32851,51.31714]},"id":"154"},{"type":"Feature","properties":{"numberAnke":"155","numberOfficial":"163","name":"Handschwengelpumpe [abgebaut]","district":"Kleinzschocher","address":"Windorfer Straße 55a","date":null,"description":"Handschwengelpumpe mit Brunnenschacht und Abdeckplatte vor Nr. 55","state":"betriebsbereit","feeding":null,"controls":null},"geometry":{"type":"Point","coordinates":[12.32707,51.31314]},"id":"155"}]}