{"type":"FeatureCollection","features":[{"type":"Feature","properties":{"numberAnke":"1","numberOfficial":"240","name":"Handschwengelpumpe [abgebaut]","district":"Reudnitz-Thonberg","address":"Albert-Schweitzer-Straße 8","date":null,"description":"Handschwengelpumpe mit Brunnenschacht und Abdeckplatte Ecke Oststraße","state":"abgebaut [Anke]","feeding":null,"controls":null},"geometry":{"type":"Point","coordinates":[12.40402,51.33198]},"id":"1"},{"type":"Feature","properties":{"numberAnke":"22","numberOfficial":"206","name":"Handschwengelpumpe","district":"Reudnitz-Thonberg","address":"Breitkopfstraße 12 (andere Straßenseite)","date":null,"description":"Handschwengelpumpe mit Brunnenschacht und Abdeckplatte gegenüber Nr. 12 in Ecklage Täubchenweg","state":"abgebaut [Anke] ","feeding":null,"controls":null},"geometry":{"type":"Point","coordinates":[12.398712,51.33661]},"id":"22"},{"type":"Feature","properties":{"numberAnke":"30","numberOfficial":"207","name":"Handschwengelpumpe [rekonstruiert]","district":"Reudnitz-Thonberg","address":"Crusiusstraße 2a","date":null,"description":"Handschwengelpumpe mit Brunnenschacht und Abdeckplatte vor Nr. 2a in Ecklage Dresdner Straße/Stephaniplatz (Typ Delphin)","state":"betriebsbereit, wenn mit ca. 6 L Wasser gefüttert wurde","feeding":"17.07.2021","controls":"21.7.21, 4.8.21"},"geometry":{"type":"Point","coordinates":[12.39841,51.33902]},"id":"30"},{"type":"Feature","properties":{"numberAnke":"53","numberOfficial":"205","name":"Handschwengelpumpe","district":"Reudnitz-Thonberg","address":"Göschenstraße 9","date":null,"description":"Handschwengelpumpe mit Brunnenschacht und Abdeckplatte in Ecklage Frommannstraße, vor Nr. 9 (Typ Delphin)","state":"verrosteter Torso mit Schwengel vorhanden [Anke]","feeding":null,"controls":null},"geometry":{"type":"Point","coordinates":[12.39676,51.33776]},"id":"53"},{"type":"Feature","properties":{"numberAnke":"77","numberOfficial":"239","name":"Handschwengelpumpe","district":"Reudnitz-Thonberg","address":"Kippenbergstraße 15","date":null,"description":"Handschwengelpumpe mit Brunnenschacht und Abdeckplatte","state":"abgebaut [Anke]","feeding":null,"controls":null},"geometry":{"type":"Point","coordinates":[12.405739,51.3352]},"id":"77"},{"type":"Feature","properties":{"numberAnke":"124","numberOfficial":"279","name":"Handschwengelpumpe","district":"Reudnitz-Thonberg","address":"Riebeckstraße 29","date":"1910 (Handschwengelpumpe)","description":"Handschwengelpumpe mit Brunnenschacht vor Nr. 29 in Ecklage Witzgallstraße (Typ Großer Löwe)","state":"Standort nicht gefunden, wahrscheinlich bepflanzt [Anke]","feeding":null,"controls":null},"geometry":{"type":"Point","coordinates":[null,null]},"id":"124"},{"type":"Feature","properties":{"numberAnke":"143","numberOfficial":"152","name":"Handschwengelpumpe [abgebaut]","district":"Reudnitz-Thonberg","address":"Täubchenweg","date":null,"description":"Handschwengelpumpe mit Brunnenschacht und Abdeckplatte vor Nr. 51/53 (Typ Delphin)","state":"abgebaut [Anke]","feeding":null,"controls":null},"geometry":{"type":"Point","coordinates":[12.40146,51.3362]},"id":"143"},{"type":"Feature","properties":{"numberAnke":"149","numberOfficial":"282","name":"Handschwengelpumpe","district":"Reudnitz-Thonberg","address":"Vor dem Hospitaltore 1","date":null,"description":"Handschwengelpumpe mit Brunnenschacht und Abdeckplatte (Typ Delphin<Fragezeichen>)","state":"abgebaut, mit großer Metallplatte versiegelt [Anke]","feeding":null,"controls":null},"geometry":{"type":"Point","coordinates":[12.395456,51.33118]},"id":"149"}]}