{"type":"FeatureCollection","features":[{"type":"Feature","properties":{"numberAnke":"24","numberOfficial":"221","name":"Handschwengelpumpe","district":"Sellerhausen-Stünz","address":"Bruhnsstraße","date":"nach 1910 (Handschwengelpumpe)","description":"Handschwengelpumpe mit Brunnenschacht und Abdeckplatte in Ecklage Plaußiger Straße (Typ Abart Kleiner Löwe)","state":"wahrscheinlich nur alter Torso vorhanden","feeding":null,"controls":null},"geometry":{"type":"Point","coordinates":[12.42957,51.34114]},"id":"24"},{"type":"Feature","properties":{"numberAnke":"70","numberOfficial":"220","name":"Handschwengelpumpe [abgebaut]","district":"Sellerhausen-Stünz","address":"Julius-Krause-Straße","date":null,"description":"Handschwengelpumpe mit Brunnenschacht und Abdeckplatte vor Nr. 36/38 (Typ Gotik)","state":"wahrscheinlich abgebaut","feeding":null,"controls":null},"geometry":{"type":"Point","coordinates":[12.43196,51.33844]},"id":"70"},{"type":"Feature","properties":{"numberAnke":"126","numberOfficial":"212","name":"Handschwengelpumpe","district":"Sellerhausen-Stünz","address":"Riesaer Straße 1","date":null,"description":"Handschwengelpumpe mit Brunnenschacht und Abdeckplatte","state":"verrosteter Torso mit Schwengel vorhanden [Rüdiger]","feeding":null,"controls":null},"geometry":{"type":"Point","coordinates":[12.438182,51.346584]},"id":"126"},{"type":"Feature","properties":{"numberAnke":"158","numberOfficial":"185","name":"Handschwengelpumpe","district":"Sellerhausen-Stünz","address":"Wurzner Straße","date":"um 1910 (Handschwengelpumpe)","description":"Handschwengelpumpe mit Brunnenschacht und Abdeckplatte vor Nr. 143a (Typ Delphin)","state":"wahrscheinlich nur alter Torso vorhanden","feeding":null,"controls":null},"geometry":{"type":"Point","coordinates":[12.42677,51.34355]},"id":"158"}]}