{"type":"FeatureCollection","features":[{"type":"Feature","properties":{"numberAnke":"5","numberOfficial":null,"name":"Handschwengelpumpe","district":"Stötteritz","address":"Arnoldstraße 16 (andere Straßenseite)","date":null,"description":"Handschwengelpumpe mit Brunnenschacht und Abdeckplatte, zwischen Weiße- u. Ferdinand-Jost-Straße","state":"Standort nicht gefunden, wahrscheinlich gar nicht mehr vorhanden (jetzt Straßenbahnhaltestelle) [Anke]","feeding":null,"controls":null},"geometry":{"type":"Point","coordinates":[null,null]},"id":"5"},{"type":"Feature","properties":{"numberAnke":"118","numberOfficial":"195","name":"Handschwengelpumpe [Torso]","district":"Stötteritz","address":"Prager Straße / Egon-Erwin-Kisch-Weg","date":"1910 (Handschwengelpumpe), 19. September 2013 nur noch Pumpenunterteil vorhanden","description":"Handschwengelpumpe mit Brunnenschacht und Abdeckplatte in Ecklage Egon-Erwin-Kisch-Weg (Typ Großer Löwe)","state":"abgebaut, nur noch Pumpenunterteil vorhanden [Anke]","feeding":null,"controls":null},"geometry":{"type":"Point","coordinates":[12.40961,51.31665]},"id":"118"},{"type":"Feature","properties":{"numberAnke":"140","numberOfficial":"289","name":"Handschwengelpumpe","district":"Stötteritz","address":"Sommerfelder Straße 14 (andere Straßenseite)","date":null,"description":"Handschwengelpumpe mit Brunnenschacht und Abdeckplatte sowie Wartungsschacht auf dem Schmuckplatz an der Stötteritzer Kirche","state":"abgebaut [Anke] --> wäre schöner Standort","feeding":null,"controls":null},"geometry":{"type":"Point","coordinates":[12.424345,51.3207]},"id":"140"}]}