{"type":"FeatureCollection","features":[{"type":"Feature","properties":{"numberAnke":"4","numberOfficial":"107","name":"Handschwengelpumpe","district":"Südvorstadt","address":"Arndtstraße 60 (andere Straßenseite)","date":null,"description":"Handschwengelpumpe mit Brunnenschacht und Abdeckplatte gegenüber Nr. 60, am Albrecht-Dürer-Platz","state":"abgebaut [Anke] --> wäre schöner Standort","feeding":null,"controls":null},"geometry":{"type":"Point","coordinates":[12.37807,51.32307]},"id":"4"},{"type":"Feature","properties":{"numberAnke":"6","numberOfficial":"230","name":"Handschwengelpumpe [abgebaut]","district":"Südvorstadt","address":"August-Bebel-Straße","date":"1910 (Handschwengelpumpe)","description":"gusseiserne Handschwengelpumpe und Abdeckplatte vor Nr. 61 (Typ Großer Löwe<Fragezeichen>)","state":"wahrscheinlich abgebaut","feeding":null,"controls":null},"geometry":{"type":"Point","coordinates":[12.36888,51.319]},"id":"6"},{"type":"Feature","properties":{"numberAnke":"14","numberOfficial":"264","name":"Handschwengelpumpe [rekonstruiert]","district":"Südvorstadt","address":"Bernhard-Göring-Straße 104 (andere Straßenseite)","date":"nach 1908 (Handschwengelpumpe)","description":"gusseiserne Handschwengelpumpe gegenüber von Bernhard-Göring-Straße 104, in Ecklage Fichtestraße (Typ Kleiner Löwe)","state":null,"feeding":"10.8.21 (erfolglos)","controls":null},"geometry":{"type":"Point","coordinates":[12.37674,51.31674]},"id":"14"},{"type":"Feature","properties":{"numberAnke":"20","numberOfficial":"119","name":"Stumpf einer Handschwengelpumpe [abgebaut]","district":"Südvorstadt","address":"Brandvorwerkstraße","date":"nach 1877 (Handschwengelpumpe)","description":"Stumpf einer Handschwengelpumpe mit Brunnenschacht und Abdeckplatte in Höhe Alfred-Kästner-Straße 9 (Typ Gotik)","state":"wahrscheinlich abgebaut","feeding":null,"controls":null},"geometry":{"type":"Point","coordinates":[12.36776,51.3224]},"id":"20"},{"type":"Feature","properties":{"numberAnke":"73","numberOfficial":"110","name":"Handschwengelpumpe [abgebaut]","district":"Südvorstadt","address":"Karl-Liebknecht-Straße","date":"nach 1877 (Handschwengelpumpe)","description":"Handschwengelpumpe mit Brunnenschacht und Abdeckplatte in Höhe Schützplatz/Scharnhorststraße (Typ Gotik)","state":"wahrscheinlich abgebaut","feeding":null,"controls":null},"geometry":{"type":"Point","coordinates":[12.37331,51.31942]},"id":"73"},{"type":"Feature","properties":{"numberAnke":"72","numberOfficial":"109","name":"Handschwengelpumpe [abgebaut]","district":"Südvorstadt","address":"Karl-Liebknecht-Straße 72","date":null,"description":"Handschwengelpumpe mit Brunnenschacht und Abdeckplatte Ecke Alfred-Kästner-Straße; vor Karl-Liebknecht-Straße Nr. 72","state":"abgebaut [Anke]","feeding":null,"controls":null},"geometry":{"type":"Point","coordinates":[12.37337,51.32218]},"id":"72"}]}