{"type":"FeatureCollection","features":[{"type":"Feature","properties":{"numberAnke":"8","numberOfficial":"146","name":"Handschwengelpumpe [Torso]","district":"Volkmarsdorf","address":"Bautzmannstraße","date":null,"description":"Sockel einer Handschwengelpumpe mit Brunnenschacht und Abdeckplatte Ecke Eisenbahnstraße 156 (Typ Gotik)","state":"wahrscheinlich abgebaut","feeding":null,"controls":null},"geometry":{"type":"Point","coordinates":[12.417002,51.34477]},"id":"8"},{"type":"Feature","properties":{"numberAnke":"10","numberOfficial":"183","name":"Handschwengelpumpe [Torso]","district":"Volkmarsdorf","address":"Bennigsenstraße","date":null,"description":"Torso einer Handschwengelpumpe mit Brunnenschacht und Abdeckplatte vor Nr. 1 (Typ Delphin)","state":null,"feeding":null,"controls":null},"geometry":{"type":"Point","coordinates":[12.41403,51.34563]},"id":"10"},{"type":"Feature","properties":{"numberAnke":"44","numberOfficial":"143","name":"Handschwengelpumpe [Torso]","district":"Volkmarsdorf","address":"Ernst-Thälmann-Platz","date":null,"description":"Handschwengelpumpe mit Brunnenschacht und Abdeckplatte gegenüber Elisabethstraße 17 (Typ Gotik)","state":"wahrscheinlich nur alter Torso vorhanden","feeding":null,"controls":null},"geometry":{"type":"Point","coordinates":[12.40902,51.34362]},"id":"44"},{"type":"Feature","properties":{"numberAnke":"91","numberOfficial":"182","name":"Handschwengelpumpe","district":"Volkmarsdorf","address":"Ludwigstraße","date":null,"description":"Handschwengelpumpe mit Brunnenschacht und Abdeckplatte vor Haus Nr. 115 (Typ Delphin)","state":"wahrscheinlich nur alter Torso vorhanden","feeding":null,"controls":null},"geometry":{"type":"Point","coordinates":[12.41148,51.34602]},"id":"91"},{"type":"Feature","properties":{"numberAnke":"91","numberOfficial":"179","name":"Handschwengelpumpe","district":"Volkmarsdorf","address":"Ludwigstraße","date":null,"description":"Handschwengelpumpe mit Brunnenschacht und Abdeckplatte vor Nr. 99 in Ecklage Elisabethstraße (Typ Delphin)","state":"wahrscheinlich nur alter Torso vorhanden","feeding":null,"controls":null},"geometry":{"type":"Point","coordinates":[12.40892,51.34616]},"id":"91"},{"type":"Feature","properties":{"numberAnke":"95","numberOfficial":"180","name":"Handschwengelpumpe [Torso]","district":"Volkmarsdorf","address":"Mariannenstraße","date":null,"description":"Torso einer Handschwengelpumpe mit Brunnenschacht und Abdeckplatte vor Nr. 91 in Ecklage eines öffentlichen Platzes und in Ecklage Elisabethstraße","state":"wahrscheinlich nur alter Torso vorhanden","feeding":null,"controls":null},"geometry":{"type":"Point","coordinates":[12.40906,51.34675]},"id":"95"},{"type":"Feature","properties":{"numberAnke":"96","numberOfficial":"181","name":"Handschwengelpumpe","district":"Volkmarsdorf","address":"Mariannenstraße","date":null,"description":"Handschwengelpumpe mit Brunnenschacht und Abdeckplatte vor Nr. 102 in Ecklage Idastraße (Typ Delphin)","state":"wahrscheinlich nur alter Torso vorhanden","feeding":null,"controls":null},"geometry":{"type":"Point","coordinates":[12.41151,51.34653]},"id":"96"},{"type":"Feature","properties":{"numberAnke":"97","numberOfficial":"184","name":"Handschwengelpumpe [abgebaut]","district":"Volkmarsdorf","address":"Mariannenstraße","date":null,"description":"Handschwengelpumpe mit Brunnenschacht und Abdeckplatte vor Nr. 121 in Ecklage Bennigsenstraße","state":"wahrscheinlich abgebaut","feeding":null,"controls":null},"geometry":{"type":"Point","coordinates":[12.41373,51.3465]},"id":"97"},{"type":"Feature","properties":{"numberAnke":"145","numberOfficial":null,"name":"Handschwengelpumpe [abgebaut]","district":"Volkmarsdorf","address":"Torgauer Straße","date":null,"description":"Handschwengelpumpe mit Brunnenschacht und Abdeckplatte in Ecklage Wurzner Straße (Typ Kleiner Löwe)","state":null,"feeding":null,"controls":null},"geometry":{"type":"Point","coordinates":[12.41142,51.3422]},"id":"145"}]}