{"type":"FeatureCollection","features":[{"type":"Feature","properties":{"numberAnke":"27","numberOfficial":"65","name":"Handschwengelpumpe [Torso]","district":"Zentrum-Ost","address":"Chopinstraße","date":null,"description":"Handschwengelpumpe mit Brunnenschacht und Abdeckplatte gegenüber Nr. 15 in Ecklage Hans-Poeche-Straße (Typ Delphin)","state":"wahrscheinlich nur alter Torso vorhanden","feeding":null,"controls":null},"geometry":{"type":"Point","coordinates":[12.390347,51.34339]},"id":"27"},{"type":"Feature","properties":{"numberAnke":"39","numberOfficial":"61","name":"Handschwengelpumpe [abgebaut]","district":"Zentrum-Ost","address":"Dohnanyistraße 9","date":null,"description":"Handschwengelpumpe mit Brunnenschacht und Abdeckplatte vor Nr. 9, Nähe Ecke Hans-Poeche-Straße","state":"wahrscheinlich abgebaut","feeding":null,"controls":null},"geometry":{"type":"Point","coordinates":[12.38932,51.34572]},"id":"39"},{"type":"Feature","properties":{"numberAnke":"67","numberOfficial":null,"name":"Handschwengelpumpe [abgebaut]","district":"Zentrum-Ost","address":"Inselstraße","date":null,"description":"Handschwengelpumpe mit Brunnenschacht und Abdeckplatte gegenüber Nr. 11 (Typ Gotik)","state":"wahrscheinlich abgebaut","feeding":null,"controls":null},"geometry":{"type":"Point","coordinates":[12.39091,51.34]},"id":"67"},{"type":"Feature","properties":{"numberAnke":"79","numberOfficial":null,"name":"Handschwengelpumpe [abgebaut]","district":"Zentrum-Ost","address":"Lange Straße","date":null,"description":"Handschwengelpumpe mit Brunnenschacht und Abdeckplatte, nahe der Dresdner Straße","state":"abgebaut, mit großer Steinplatte abgedeckt [Anke]","feeding":null,"controls":null},"geometry":{"type":"Point","coordinates":[12.39381,51.33938]},"id":"79"},{"type":"Feature","properties":{"numberAnke":"88","numberOfficial":"66","name":"Handschwengelpumpe [rekonstruiert]","district":"Zentrum-Ost","address":"Ludwig-Erhard-Straße 53","date":null,"description":"Handschwengelpumpe mit Brunnenschacht und Abdeckplatte vor Nr. 51/53 (Typ Kleiner Löwe)","state":"betriebsbereit [Anke]","feeding":"bisher nicht erforderlich","controls":"21.7.21, 4.8.21"},"geometry":{"type":"Point","coordinates":[12.39305,51.34468]},"id":"88"},{"type":"Feature","properties":{"numberAnke":"98","numberOfficial":"64","name":"Handschwengelpumpe [rekonstruiert]","district":"Zentrum-Ost","address":"Marienplatz","date":null,"description":"Handschwengelpumpe mit Brunnenschacht und Abdeckplatte (Typ Delphin)","state":"betriebsbereit, wenn mit ca. 4 L Wasser gefüttert wurde","feeding":"21.7.21.","controls":"04.08.2021, 8.8.21"},"geometry":{"type":"Point","coordinates":[12.392808,51.34289]},"id":"98"},{"type":"Feature","properties":{"numberAnke":"123","numberOfficial":"63","name":"Handschwengelpumpe [abgebaut]","district":"Zentrum-Ost","address":"Reudnitzer Straße 7-9","date":null,"description":"Handschwengelpumpe mit Brunnenschacht und Abdeckplatte gegenüber Nr. 7/9","state":"wahrscheinlich abgebaut","feeding":null,"controls":null},"geometry":{"type":"Point","coordinates":[12.39203,51.34396]},"id":"123"},{"type":"Feature","properties":{"numberAnke":"128","numberOfficial":"60","name":"Handschwengelpumpe","district":"Zentrum-Ost","address":"Rosa-Luxemburg-Straße","date":"1910 (Handschwengelpumpe)","description":"Handschwengelpumpe mit Brunnenschacht und Abdeckplatte Ecke Hofmeisterstraße (Typ Großer Löwe)","state":"wahrscheinlich intakt","feeding":null,"controls":null},"geometry":{"type":"Point","coordinates":[12.3874,51.34381]},"id":"128"},{"type":"Feature","properties":{"numberAnke":"135","numberOfficial":"57","name":"Handschwengelpumpe [rekonstruiert]","district":"Zentrum-Ost","address":"Schützenstraße 8","date":null,"description":"Handschwengelpumpe mit Brunnenschacht Ecke Querstraße vor Nr. 8/10 (Typ Gotik)","state":null,"feeding":null,"controls":null},"geometry":{"type":"Point","coordinates":[12.384303,51.34243]},"id":"135"}]}