{"type":"FeatureCollection","features":[{"type":"Feature","properties":{"numberAnke":"7","numberOfficial":"83","name":"Handschwengelpumpe","district":"Zentrum-Südost","address":"Auguste-Schmidt-Straße 10","date":null,"description":"Handschwengelpumpe mit Brunnenschacht und Abdeckplatte schräg gegenüber Nr. 10","state":"abgebaut [Anke]","feeding":null,"controls":null},"geometry":{"type":"Point","coordinates":[12.382087,51.335754]},"id":"7"},{"type":"Feature","properties":{"numberAnke":"9","numberOfficial":null,"name":"Handschwengelpumpe","district":"Zentrum-Südost","address":"Bayrischer Platz","date":null,"description":"Handschwengelpumpe mit Brunnenschacht und Abdeckplatte auf dem Vorplatz am Bayrischen Bahnhof (zur Straße des 18. Oktober; neben dem Portikus)","state":"Standort nicht gefunden [Anke]","feeding":null,"controls":null},"geometry":{"type":"Point","coordinates":[12.380388,51.33017]},"id":"9"},{"type":"Feature","properties":{"numberAnke":"45","numberOfficial":"91","name":"Handschwengelpumpe [abgebaut]","district":"Zentrum-Südost","address":"Friedrichstraße 34","date":null,"description":"Handschwengelpumpe mit Brunnenschacht und Abdeckplatte sowie Wartungsschacht gegenüber ehemals Nr. 34, hinter Talstraße 34/Brüderstraße 55","state":"abgebaut [Anke]","feeding":null,"controls":null},"geometry":{"type":"Point","coordinates":[12.3849,51.33298]},"id":"45"},{"type":"Feature","properties":{"numberAnke":"49","numberOfficial":"89","name":"Handschwengelpumpe","district":"Zentrum-Südost","address":"Glockenstraße 6 (andere Straßenseite)","date":null,"description":"Handschwengelpumpe mit Brunnenschacht und Abdeckplatte gegenüber Hauseingang Nürnberger Straße 45","state":"abgebaut [Anke]","feeding":null,"controls":null},"geometry":{"type":"Point","coordinates":[12.383632,51.33345]},"id":"49"},{"type":"Feature","properties":{"numberAnke":"50","numberOfficial":"82","name":"Handschwengelpumpe [abgebaut]","district":"Zentrum-Südost","address":"Goldschmidtstraße","date":null,"description":"nahe Roßplatz; Handschwengelpumpe mit Brunnenschacht und Abdeckplatte","state":"wurde verfüllt [Bau und Service GmbH]","feeding":null,"controls":null},"geometry":{"type":"Point","coordinates":[12.38279,51.33649]},"id":"50"},{"type":"Feature","properties":{"numberAnke":"51","numberOfficial":"81","name":"Handschwengelpumpe [abgebaut]","district":"Zentrum-Südost","address":"Goldschmidtstraße 29","date":"1910 (Handschwengelpumpe)","description":"Handschwengelpumpe mit Brunnenschacht und Abdeckplatte in Ecklage Talstraße, vor Nr. 29 (Typ Großer Löwe<Fragezeichen>)","state":"abgebaut [Anke]","feeding":null,"controls":null},"geometry":{"type":"Point","coordinates":[12.38606,51.33584]},"id":"51"},{"type":"Feature","properties":{"numberAnke":"83","numberOfficial":"118","name":"Handschwengelpumpe","district":"Zentrum-Südost","address":"Leplaystraße","date":null,"description":"Handschwengelpumpe mit Brunnenschacht und Abdeckplatte Ecke Grünewaldstraße (Typ Gotik)","state":"abgebaut [Anke]","feeding":null,"controls":null},"geometry":{"type":"Point","coordinates":[12.378478,51.33439]},"id":"83"},{"type":"Feature","properties":{"numberAnke":"117","numberOfficial":"156","name":"Handschwengelpumpe","district":"Zentrum-Südost","address":"Philipp-Rosenthal-Straße","date":null,"description":"Handschwengelpumpe mit Brunnenschacht und Abdeckplatte in den ehemaligen Gärten zwischen Philipp-Rosenthal-Straße und Prager Straße (Typ K)","state":"Standort nicht gefunden, wahrscheinlich abgebaut [Anke]","feeding":null,"controls":null},"geometry":{"type":"Point","coordinates":[null,null]},"id":"117"},{"type":"Feature","properties":{"numberAnke":"138","numberOfficial":"85","name":"Handschwengelpumpe [abgebaut]","district":"Zentrum-Südost","address":"Seeburgstraße","date":null,"description":"Handschwengelpumpe mit Brunnenschacht und Abdeckplatte vor Talstraße 12b","state":"Standort nicht gefunden [Anke]","feeding":null,"controls":null},"geometry":{"type":"Point","coordinates":[12.38556,51.33449]},"id":"138"},{"type":"Feature","properties":{"numberAnke":"139","numberOfficial":"87","name":"Handschwengelpumpe [abgebaut]","district":"Zentrum-Südost","address":"Seeburgstraße 11","date":null,"description":"Handschwengelpumpe mit Brunnenschacht und Abdeckplatte vor Nr. 11","state":"abgebaut [Anke]","feeding":null,"controls":null},"geometry":{"type":"Point","coordinates":[12.38259,51.33512]},"id":"139"},{"type":"Feature","properties":{"numberAnke":"137","numberOfficial":"86","name":"Handschwengelpumpe [abgebaut]","district":"Zentrum-Südost","address":"Seeburgstraße 11 (andere Straßenseite)","date":null,"description":"Handschwengelpumpe mit Brunnenschacht und Abdeckplatte in Ecklage Nürnberger Straße","state":"abgebaut [Anke]","feeding":null,"controls":null},"geometry":{"type":"Point","coordinates":[12.38325,51.33488]},"id":"137"},{"type":"Feature","properties":{"numberAnke":"141","numberOfficial":"88","name":"Handschwengelpumpe [abgebaut]","district":"Zentrum-Südost","address":"Sternwartenstraße 23","date":null,"description":"Handschwengelpumpe mit Brunnenschacht und Abdeckplatte vor Nr. 23/25 (Typ Gotik)","state":"abgebaut [Anke]","feeding":null,"controls":null},"geometry":{"type":"Point","coordinates":[12.38084,51.33489]},"id":"141"}]}